name,subtypes,address,sub_district,district,province,postal_code,country,latitude,longitude,phone,site,description,score
Park Village Rama 2,"Hotel, Serviced apartment","1 / 1-1 / 3 Rama II Soi 56, Samae Dam, Bang Khun Thian, Bangkok 10150",Samae Dam,Bang Khun Thian,Bangkok,10150,Thailand,13.6611016,100.4338261,+66 2 415 1122,https://www.atparkvillage.com/,Breezy rooms & apartments in an upmarket apartment hotel offering city views & a rooftop pool.,0
Kozy inn,"Extended stay hotel, Apartment building, Lodging, Serviced apartment","42/24 Soi Kamnanamen, Kallaprapruk Rd, Bang Khun Thian, Chom Thong, Bangkok 10150",Bang Khun Thian,Chom Thong,Bangkok,10150,Thailand,13.6978063,100.4364083,+66 2 802 1910,http://www.kozykornerbangkok.com/,,0
Eurna Resort,Lodging,101/1-2 ถนนท่าข้าม ซอยท่าข้าม 9/1 แสมดำ บางขุนเทียน Bangkok 10150,แสมดำ,Bang Khun Thian,Bangkok,10150,Thailand,13.6495622,100.4452922,+66 2 415 3078,,"Understated rooms in a unassuming resort offering a pool, a bar & a restaurant, plus a garden.",0
เบน เรสซิเดนซ์,Hotel,"551/1 Rama II Soi 69, Samae Dam, Bang Khun Thian, Bangkok 10150",Samae Dam,Bang Khun Thian,Bangkok,10150,Thailand,13.6401382,100.4290599,+66 2 894 6545,,,0
J and L Residence and Spa,Holiday apartment rental,"252 Phet Kasem 67 Alley, Lane 12, Lak Song, Bang Khae, Bangkok 10160",Lak Song,Bang Khae,Bangkok,10160,Thailand,13.705711,100.3793201,+66 2 408 9659,http://facebook.com/jandlresidenceandspa,,0
Tree Place,Hostel,111/108 Ekachai Soi.6 Bangkuntian Jomthong Bangkok 10150,Bang Khun Thian,Jomthong,Bangkok,10150,Thailand,13.7012839,100.4608145,+66 82 499 3355,http://treeplace-bke.zoombookdirect.com/,,0
Penyos Residence,Hotel,"290 Petchkasem Rd, Bangkhae, Bang Khae, Bangkok 10160",Bangkhae,Bang Khae,Bangkok,10160,Thailand,13.7055218,100.3790763,+66 87 018 7193,https://www.facebook.com/penyosresidence,,0
Bed By Thapa Hotel (โรงแรมเบดบาย ท่าพระ),Hotel,"134 12-14 Phet Kasem 26/1 Alley, Pak Khlong Phasi Charoen, Phasi Charoen, Bangkok 10160",Pak Khlong Phasi Charoen,Phasi Charoen,Bangkok,10160,Thailand,13.7236836,100.4630051,+66 84 646 5151,,"Functional rooms, some with sofabeds, in an informal hotel featuring a restaurant & a coffee shop.",0
The Pattern Boutique Hotel,Hotel,"547 553 Soi Krung Thonburi 6, Banglambhoolang, Khlong San, Bangkok 10600",Banglambhoolang,Khlong San,Bangkok,10600,Thailand,13.7179126,100.5013656,+66 82 424 2989,,"Understated hotel offering a lounge & a cafe, as well as breakfast & Wi-Fi access.",0
Little Lodge,Hotel,"159 Bang Bon 4 Rd, Bang Bon Nuea, Bang Bon, Bangkok 10150",Bang Bon Nuea,Bang Bon,Bangkok,10150,Thailand,13.6648476,100.3703687,+66 84 515 9289,https://littlelodge.thailandhotels.site/,,0
47 Resort,Hotel,"1 Ekkachai 47 Alley, Bang Bon Nuea, Bang Bon, Bangkok 10150",Bang Bon Nuea,Bang Bon,Bangkok,10150,Thailand,13.6822507,100.4416097,+66 91 792 5393,,,0
OYO 387 Little Bangbon,Hotel,"159 Soi, Bang Bon Nuea, Khet Bang Bon, Bangkok 10160",Bang Bon Nuea,Bang Bon,Bangkok,10160,Thailand,13.6564818,100.3729655,+91 85879 76831,https://www.oyorooms.com/th/hotels-in-Bangkok/?utm_source=Google_gmb_so_TH&utm_medium=Organic&utm_campaign=TH_BGK067&locale=en,"Unassuming budget hotel featuring simple quarters, some with living rooms, plus a bar & Wi-Fi.",0
พันหมื่นเรสซิเดนซ์,"Hostel, Extended stay hotel","135 3 Bang Khun Thian-Chai Thalae Rd, Samae Dam, Bang Khun Thian, Bangkok 10150",Samae Dam,Bang Khun Thian,Bangkok,10150,Thailand,13.6638584,100.4303394,+66 88 812 9991,http://www.1000-10000.com/,Bright rooms & suites in a relaxed hotel featuring a restaurant & an outdoor pool pool.,0
Mall Suite Service Apartment,Serviced accommodation,"3530 144 Lat Phrao Rd, Khlong Chan, Bang Kapi District, Bangkok 10240",Khlong Chan,Bang Kapi District,Bangkok,10240,Thailand,13.766499,100.6439258,+66 81 420 7771,https://www.facebook.com/mallsuites/,,0
Thomson Hotel Huamark BANGKOK,"Serviced accommodation, Hotel","Soi 15, Khwaeng Hua Mak, Khet Bang Kapi, 10240",Khwaeng Hua Mak,Khet Bang Kapi,Bangkok,10240,Thailand,13.753689,100.608384,+66 2 318 4288,http://www.thomsonbangkok.com/,"Minimalist rooms & suites, some with kitchenettes, in a casual hotel offering free Wi-Fi & a gym.",0
Livotel Hotel Hua Mak,Hotel,"เลขที่ 33 20 Soi Ramkhamhaeng 32, Hua Mak, Bang Kapi District, Bangkok 10240",Hua Mak,Bang Kapi District,Bangkok,10240,Thailand,13.7533417,100.63607,+66 96 640 4000,http://www.livotelhotel.com/,Minimalist rooms with city views in a hip hotel offering a restaurant & a trendy cafe.,0
Baron Zotel Bangkok,"Hotel, Asian restaurant, Bar, Lodging","77 Lat Phrao 117 Alley, Khlong Chan, Bang Kapi District, Bangkok 10240",Khlong Chan,Bang Kapi District,Bangkok,10240,Thailand,13.7723678,100.6406919,+66 2 734 0033,https://www.baronzotel.com/,"Low-key rooms, some with an industrial vibe, in a laid-back hotel offering a rooftop restaurant/bar.",0
Livotel Express Hotel Ramkhamhaeng 50,"Hotel, Inn","38 Soi Ramkhamhaeng 50, Hua Mak, Bang Kapi District, Bangkok 10240",Hua Mak,Bang Kapi District,Bangkok,10240,Thailand,13.7597073,100.642631,+66 89 043 2233,,"Straightforward rooms with balconies in an unfussy hotel offering Wi-Fi, parking & a lobby lounge.",0
Bangkok Interplace,"Hotel, Restaurant","118, 92 Soi Ramkhamhaeng 24, Khwaeng Hua Mak, Bang Kapi District, Bangkok 10240",Hua Mak,Bang Kapi District,Bangkok,10240,Thailand,13.753245,100.622341,+66 2 319 0330,http://www.bangkokinterplace.com/,Warmly decorated rooms & suites in a trendy hotel offering a fashionable restaurant.,0
Alexander Hotel,Hotel,"อเล็กซานเดอร์ 1 Soi Ramkhamhaeng 83/3, Hua Mak, Bang Kapi District, Bangkok 10240",Hua Mak,Bang Kapi District,Bangkok,10240,Thailand,13.7628635,100.6386013,+66 2 715 8888,http://www.alexanderhotel.co.th/,"Straightforward hotel next to a canal, offering 24-hour dining & an outdoor pool.",0
B2 Bangkok Srinagarindra Boutique & Budget Hotel,"Hotel, Boutique","12, ซอย Srinagarindra 2, หัวหมาก Bang Kapi District, Bangkok 10240",หัวหมาก,Bang Kapi District,Bangkok,10240,Thailand,13.7537757,100.6443912,+66 2 102 5881,http://www.b2hotel.com/bangkok/b2-bangkok-srinakharin-boutique-budget-hotel/,"Warm rooms, some with living areas, in a laid-back budget hotel featuring complimentary Wi-Fi.",0
Royal Pimand,"Hotel, Apartment building, Services","559 ซอย ลาดพร้าว 130 Khlong Chan, Bang Kapi District, Bangkok 10240",Khlong Chan,Bang Kapi District,Bangkok,10240,Thailand,13.7690753,100.6326217,+66 81 845 3815,https://www.royalpimand.com/,Relaxed rooms & suites in a laid-back lodging offering a Japanese restaurant & a lobby lounge.,0
JL Bangkok,Hotel,"5 Ramkhamhaeng 23 Alley, Hua Mak, Bang Kapi District, Bangkok 10240",Hua Mak,Bang Kapi District,Bangkok,10240,Thailand,13.7544276,100.611904,+66 85 075 2556,http://jlbangkok.com/,"Straightforward hotel offering a restaurant and meeting space, plus breakfast & Wi-Fi.",0
Viewplace Mansion วิวเพลส แมนชั่น ลาดพร้าว 130,"Extended stay hotel, Apartment building, Serviced apartment","29 Soi Lat Phrao 130, Khlong Chan, Bang Kapi District, Bangkok 10240",Khlong Chan,Bang Kapi District,Bangkok,10240,Thailand,13.7714468,100.6323554,+66 2 733 9182,https://viewplacemansion.business.site/,"Straightforward budget lodging offering a restaurant & a TV lounge, plus free Wi-Fi & parking.",0
Regent Ramkhamhaeng 22,Hotel,"4 Ramkhamhaeng 22 Alley, Hua Mak, Bang Kapi District, Bangkok 10240",Hua Mak,Bang Kapi District,Bangkok,10240,Thailand,13.7544487,100.6132057,+66 2 318 4444,http://www.regentram.com/,"Simple rooms in an unassuming hotel offering halal dining, a Muslim prayer room & parking.",0
Livotel Hotel Lat Phrao 130,"Hotel, Lodging","707 ซอย ลาดพร้าว 130 Khlong Chan, Bang Kapi District, Bangkok 10240",Khlong Chan,Bang Kapi District,Bangkok,10240,Thailand,13.7649289,100.6333384,+66 86 404 6000,http://www.livotelhotel.com/,"Colorful rooms & suites in a down-to-earth hotel offering a hip cafe, a patio & free Wi-Fi.",0
Kantary House Bangkok Hotel & Serviced Apartments,Hotel,"14 Soi Ramkhamhaeng 42, Khwaeng Hua Mak, Bang Kapi District, Bangkok 10240",Hua Mak,Bang Kapi District,Bangkok,10240,Thailand,13.7609169,100.6396579,+66 2 374 5544,http://www.kantarycollection.com/kantaryhouse-bangkok/,"Bright studio and 1- or 2-bedroom apartments, plus a laid-back restaurant & an outdoor pool.",0
Al Meroz Hotel,Hotel,"4 Ramkhamhaeng 5 Alley, Suan Luang, Bangkok 10250",Suan Luang,Suan Luang,Bangkok,10250,Thailand,13.7460811,100.6038516,+66 2 136 8700,http://www.almerozhotel.com/,Warmly decorated rooms in an Arabian-inspired hotel offering a rooftop pool & halal dining.,0
Icare Residence & Hotel,Hotel,"55/5 Soi80 Petchkasem Rd, Bang Khae Nuea, Bang Khae, Bangkok 10160",Bang Khae Nuea,Bang Khae,Bangkok,10160,Thailand,13.7147518,100.4105276,+66 65 991 9989,https://icareresidencehotel.thailandhotels.site/,"Streamlined rooms in a down-to-earth hotel featuring a restaurant, breakfast & parking.",0
OYO 410 Diamond Boutique Hostel,Hotel,"58/1-2 Phet Kasem Rd, Bang Khae Nuea, Bang Khae, Bangkok 10160",Bang Khae Nuea,Bang Khae,Bangkok,10160,Thailand,13.7068166,100.4165705,+66 2 026 1271,https://www.oyorooms.com/86431/,"Colorful, simply furnished rooms with Wi-Fi in a straightforward budget hotel featuring a lounge.",0
Diamond sweet hotel โรงแรมไดมอนด์ สวีท,Hotel,"58/1 ถ.เพชรเกษม ซ.เพชรเกษม41 Bang Khae, Bangkok 10160",Bang Khae,Bang Khae,Bangkok,10160,Thailand,13.7071732,100.4166285,+66 2 455 2031,https://www.facebook.com/diamondsweethotelbangkae/,"Modest rooms in a straightforward hotel offering a casual restaurant, plus free Wi-Fi.",0
Ruan plaisoi Apartment,Hotel,"55 /1 Phet Kasem 80 Alley, Bang Khae Nuea, Bang Khae, Krung Thep Maha Nakhon 10160",Bang Khae Nuea,Bang Khae,Bangkok,10160,Thailand,13.7149789,100.4105008,+66 84 460 9222,,,0
Chill Apartment,Hotel,"Chill Apartment, 46 Phet Kasem 67 Alley, Lane 4, Lak Song, Bang Khae, Bangkok 10160",Lak Song,Bang Khae,Bangkok,10160,Thailand,13.7072325,100.378848,+66 81 824 7923,https://www.oyorooms.com/86778/,Simple rooms in an unassuming budget hotel offering a fitness room & an outdoor pool.,0
@home Phetkasem 57,"Hotel, Serviced apartment","55/1 Phet Kasem 57 Alley, Lak Song, Bang Khae, Bangkok 10160",Lak Song,Bang Khae,Bangkok,10160,Thailand,13.7074742,100.3926651,+66 80 546 5000,https://home-phetkasem.business.site/,,0
OYO MRT Phetkasem 48/1 Place (โอโย่ เพชรเกษม 48/1),Hostel,"เลขที่ 99 ซอยเพชรเกษม 48/1 ใกล้รถไฟฟ้า MRT สถานีเพชรเกษม 48 บางหว้า, Phasi Charoen, Bangkok 10160",Bang Wa,Phasi Charoen,Bangkok,10160,Thailand,13.7161931,100.4435577,+66 65 493 9496,https://oyomrtphetkasem48place.business.site/?utm_source=gmb&utm_medium=referral,,0
Nonnaisuan resort,Hostel,1041 ถ.บางแวก แขวงบางไผ่ เขตบางแค จังหวัด กรุงเทพ 10160 บางไผ่ บางแค Bangkok 10160,บางไผ่,บางแค,Bangkok,10160,Thailand,13.7464424,100.3561377,+66 95 252 9166,https://www.facebook.com/Nonnaisuan-resort-136727596943135/,Individually decorated rooms in an unassuming guesthouse featuring a garden with a pond.,0
OYO 525 MRT Phetkasem 48/1 Place,Hostel,"99 Soi Phet Kasem 48/1, Khwaeng Bang Wa, Khet Phasi Charoen, Krung Thep Maha Nakhon 10160",Bang Wa,Phasi Charoen,Bangkok,10160,Thailand,13.7163723,100.4436652,+66 2 026 1271,https://www.oyorooms.com/92917/,,0
Wild Ones Hostel,Hostel,"97, 1 Soi Phet Kasem 28 Yaek 5, Khuha Sawan, Phasi Charoen, Bangkok 10160",Khuha Sawan,Phasi Charoen,Bangkok,10160,Thailand,13.7261959,100.4594486,+66 63 313 8028,,,0
โรงแรมเบสท์เวสเทิร์น นาดา ดอนเมือง แอร์พอร์ต,Hotel,"235, 8 Phahonyothin Road, Anusawari, Bang Khen, Bangkok 10220",Anusawari,Bang Khen,Bangkok,10220,Thailand,13.8795085,100.5988878,+66 2 551 2222,http://www.bwnadadonmueang.com/,,0
The Royal Bee Apart Hotel,"Extended stay hotel, Hotel, Serviced apartment","35 Soi Phaholyothin 69 Phaholyothin Rd., Anusaowari,, ,, Bangkhen, Bangkok 10220",",",Bangkhen,Bangkok,10220,Thailand,13.8879805,100.603264,+66 2 972 4600,http://www.royalbeeaparthotel.com/,No-frills rooms with free Wi-Fi in a straightforward hotel featuring a gym & a cafe.,0
Petchsiri Boutique Hotel - เพชรสิริ บูทิค,Hotel,"Ram Intra 19 Yaek 6 Alley, Anusawari, Bang Khen, Bangkok 10220",Anusawari,Bang Khen,Bangkok,10220,Thailand,13.8661129,100.616564,+66 94 940 8080,https://www.facebook.com/PetchsiriBoutique/,"Down-to-earth hotel offering parking, as well as streamlined rooms with Wi-Fi & minifridges.",0
B2 Don Mueang Premier Hotel / บีทู ดอนเมือง พรีเมียร์,Hotel,"1 8 Chaeng Watthana 4 Alley, Anusawari, Bang Khen, Bangkok 10220",Anusawari,Bang Khen,Bangkok,10220,Thailand,13.8787645,100.5933767,+66 2 101 0888,http://www.b2hotel.com/bangkok/b2-don-mueang-premier-hotel/,"Unpretentious hotel offering streamlined rooms with minifridges, plus parking & Wi-Fi.",0
VILLA23 Residence,Hotel,"116/17, Soi Raminthra 23 , Raminthra Road Kwang Anusawari, Bang Khen, Bangkok 10220",Anusawari,Bang Khen,Bangkok,10220,Thailand,13.8697697,100.6226265,+66 80 061 2999,,Warmly furnished rooms with minifridges in a laid-back hotel offering parking & Wi-Fi.,0
OYO 106 5 Chang Palace,Hotel,"14 Soi Ram Intra 5, Anusawari, Bang Khen, Bangkok 10220",Anusawari,Bang Khen,Bangkok,10220,Thailand,13.8725202,100.6151264,+66 2 026 1271,,"Straightforward budget hotel offering low-key rooms, some with balconies, plus complimentary Wi-Fi.",0
OYO 691 Don Muang Boutique House,Hotel,"342/178 Thanon Chaeng Watthana, Anusawari, Bang Khen, Bangkok 10220",Anusawari,Bang Khen,Bangkok,10220,Thailand,13.8808115,100.5947272,+66 2 026 1271,https://www.oyorooms.com/TH/97462/?utm_source=GMB_TH&utm_medium=Organic&utm_campaign=TH_BGK140&latitude=13.8808028&longitude=100.59474304&locale=en,"Straightforward budget hotel offering modest dorms & private rooms, plus a garden & Wi-Fi.",0
48 Ville Donmuang Airport,Hotel,"94/1 Phahon Yothin 48 Alley, Lane 2, Anusawari, Bang Khen, Bangkok 10220",Anusawari,Bang Khen,Bangkok,10220,Thailand,13.8844318,100.6064723,+66 88 570 7948,http://www.48ville.com/,"Simple, colorful rooms in a casual hotel offering a coffee shop & a free airport shuttle.",0
Chanmuan Resident,Hotel,"72 Lat Pla Khao road, Soi Lat Pla Khao 72, Anusawari, Bangkhen [Ruethida Apartment] Bangkok 10220",Anusawari,Bang Khen,Bangkok,10220,Thailand,13.855689,100.612283,+66 81 442 3696,https://www.facebook.com/Ruenthida/,,0
GEMS-PARK service apartment DMK Bangkok,"Hotel, Lodging","ซอย Phahonyothin 59 Rd, Anusawari, Bang Khen, Bangkok 10220",Anusawari,Bang Khen,Bangkok,10220,Thailand,13.8832658,100.6001906,+66 84 900 8400,https://www.gems-park.com/,Unpretentious hotel offering down-to-earth rooms with complimentary Wi-Fi & private balconies.,0
OYO 491 5 Diamond,Hotel,"Near Badmnton Court, Bangkok Near Badmnton Court, Bangkok BE_Sai Mai P2",Anusawari,Bang Khen,Bangkok,None,Thailand,13.87261,100.615022,+66 2 026 1271,https://www.oyorooms.com/h/90378/?utm_source=GMB_TH&utm_medium=Organic&utm_campaign=TH_BGK097&latitude=13.87261&longitude=100.615022&locale=en,,0
Livotel Hotel Kaset-Nawamin,Hotel,"333 ซอย พหลโยธิน 34 Sena Nikhom, Chatuchak, Bangkok 10900",Sena Nikhom,Chatuchak,Bangkok,10900,Thailand,13.8395497,100.5826652,+66 95 909 7000,,Streamlined rooms with balconies in a laid-back budget hotel offering free parking & Wi-Fi.,0
Phurahong Homestay,"Homestay, Guest house","45/4 ม.4 พหลโยธิน 52 คลองถนน Khlong Thanon, Sai Mai, Bangkok 10220",Khlong Thanon,Sai Mai,Bangkok,10220,Thailand,13.8841218,100.6240881,+66 96 149 3639,https://www.facebook.com/Phurahong-Homestay-DMK-Airport-1429702757091627/,,0
Thanks pama,Inn,"9 Ram Intra 33 Aly, อนุสาวรีย์ Bang Khen, Bangkok 10220",อนุสาวรีย์,Bang Khen,Bangkok,10220,Thailand,13.8596121,100.6256622,+66 88 909 0353,,,0
5box Donmuang Airport,Hotel,"231 ซอย รามอินทรา Anusawari, Bang Khen, Bangkok 10220",Anusawari,Bang Khen,Bangkok,10220,Thailand,13.8718709,100.6155319,+66 2 026 1271,,"Relaxed, colorful budget hotel in shipping containers featuring a lounge & a rooftop terrace.",0
Paholyothin Park Place,Hotel,"2547 Phahonyothin Road, Lat Yao, Chatuchak, Bangkok 10900",Lat Yao,Chatuchak,Bangkok,10900,Thailand,13.8523025,100.5827045,+66 2 942 7641,https://paholyothinparkplace.thailandhotels.site/,"Warm quarters in an understated hotel featuring a restaurant, massages & a lobby lounge.",0
ชูการ์ เพลส บางขุนเทียน,Hotel,"80/530 Rama II 60/1 Alley, Samae Dam, Bang Khun Thian, Bangkok 10150",Samae Dam,Bang Khun Thian,Bangkok,10150,Thailand,13.6625603,100.4302629,+66 2 416 2504,https://budget-hotel-126.business.site/,,0
Sweet Mansion,"Apartment building, Serviced apartment","เลขที่2 Rama II Soi 59, Samae Dam, Bang Khun Thian, Bangkok 10150",Samae Dam,Bang Khun Thian,Bangkok,10150,Thailand,13.655106,100.4294773,+66 85 234 8886,https://www.facebook.com/sweetmansion0852348886,,0
เอกฉัตร และ44แมนชั่น,Lodging,"299 ซอย พระรามสอง Tha Kham, Bang Khun Thian, Bangkok 10150",Tha Kham,Bang Khun Thian,Bangkok,10150,Thailand,13.6750566,100.4504031,+66 2 415 2255,http://website-783188195263934100941-1.business.site/,,0
ไลเคอ โฮเทล Laike Hotel Rama 2,Hotel,"646 ถ. พระราม ๒ Bang Mot, Chom Thong, Bangkok 10150",Bang Mot,Chom Thong,Bangkok,10150,Thailand,13.6752885,100.4599716,+66 2 409 2345,https://www.facebook.com/profile.php?id=100087913157583&mibextid=LQQJ4d,,0
Black Canyon เซ็นทรัลพระราม2ชั้น4,Coffee shop,"128 ถนน พระรามสอง Samae Dam, Bang Khun Thian, Bangkok 10150",Samae Dam,Bang Khun Thian,Bangkok,10150,Thailand,13.6647474,100.4393387,+66 2 872 4231,http://www.blackcanyoncoffee.com/,,0
HOP INN Bangkok Bang Na,Hotel,"165 Debaratna Rd, แขวงบางนาเหนือ, Bang Na, Bangkok 10260",แขวงบางนาเหนือ,Bang Na,Bangkok,10260,Thailand,13.672023,100.61533,+66 2 659 2899,https://www.hopinnhotel.com/th/our-hotels/hop-inn-bangkok-bangna,,0
Bang Na Pride Hotel and Residence,Hotel,"2 Bang Na-Trat Frontage Rd, Bang Kaeo, Bang Phli District, Samut Prakan 10540",Bang Kaeo,Bang Phli District,Samut Prakan,10540,Thailand,13.6573709,100.66143,+66 2 769 3131,http://www.bangnapride.com/,"Modern quarters in a polished hotel offering dining, an outdoor pool & a gym, plus free Wi-Fi.",0
Novotel Bangkok Bangna,Hotel,"333 Srinakarin Rd, Khwaeng Nong Bon, Prawet, Bangkok 10250",Nong Bon,Prawet,Bangkok,10250,Thailand,13.673146,100.64688,+66 2 366 0505,https://all.accor.com/lien_externe.svlt?goto=fiche_hotel&code_hotel=1738&merchantid=seo-maps-TH-1738&sourceid=aw-cen&utm_medium=seo+maps&utm_source=google+Maps&utm_campaign=seo+maps&y_source=1_MTUzNTgyNjctNzE1LWxvY2F0aW9uLndlYnNpdGU%3D,"Contemporary hotel with streamlined quarters, 4 restaurants & 3 bars, plus an outdoor pool & a spa.",0
Thomson Hotels and Residences Bang Na,"Extended stay hotel, Hotel, Serviced apartment","42 Bangna-Trad Soi 4,, Bangna-Trad Road,, Bangna, Bangkok",Bang Na Tai,Bangna,Bangkok,None,Thailand,13.6689589,100.6143965,+66 2 744 5108,http://www.thomsonbangkok.com/,"Bright rooms & sleek suites, some with kitchens, in a chic hotel with a pool, restaurant & parking.",0
ROMANCE HOTEL BANG NA,Hotel,"19 Soi Srinagarindra 56, Nong Bon, Prawet, Bangkok 10250",Nong Bon,Prawet,Bangkok,10250,Thailand,13.6754466,100.6429481,+66 2 748 9339,,"Casual rooms in a no-nonsense hotel offering a lobby lounge, a gym & complimentary Wi-Fi.",0
Cubic Bang Na Hotel,Hotel,8 ถนนเทพรัตน บางนาใต้ Bangkok 10260,Bang Na Tai,Bang Na,Bangkok,10260,Thailand,13.6726903,100.6069641,+66 83 955 1010,https://www.facebook.com/cubicbangnahotel/,,0
The Journey Hotel Bangna,Hotel,"12/992 หมู่ที่ 15 39 Bang Na-Trat KM. 6 Alley, Bang Kaeo, Bang Phli District, Samut Prakan 10540",Bang Kaeo,Bang Phli District,Samut Prakan,10540,Thailand,13.6633061,100.6597378,+66 2 102 6552,http://www.thejourneyhotel.com/,"Cozy property featuring airy rooms, plus a gym, a coffee shop & complimentary Wi-Fi.",0
Bang Na 21 Residence,"Hotel, Apartment building","25 Soi Bangna-Trad 19 Yak 8, Bang Na Tai, Bang Na, Bangkok 10260",Bang Na Tai,Bang Na,Bangkok,10260,Thailand,13.6714636,100.6317999,+66 81 575 1133,http://www.bangna21.com/,"Straightforward hotel featuring understated rooms, some with terraces & city views.",0
TAKKA Hotel,Hotel,"3048 3048 1 บางนา Bang Na, Bangkok 10260",บางนา,Bang Na,Bangkok,10260,Thailand,13.6764932,100.6078707,+66 97 373 4343,https://www.facebook.com/TAKKAhotel,,0
Lily Hotel Bangkok,"Hotel, Apartment building, Serviced apartment, Vacation home rental agency","24/1 Sukhumvit 68Sukhumvit Rd. Bangna, Bangkok, 10260",Bang Na Nuea,Bang Na,Bangkok,10260,Thailand,13.677419,100.606452,+66 2 744 9090,http://www.lilyhotelbangkok.com/,"Sleek, straightforward hotel with an Asian restaurant, an outdoor pool & a garden terrace.",0
HTel Resort,"Resort hotel, Hotel","23 ซอย 2 Bang Na Tai, Bang Na, Bangkok 10260",Bang Na Tai,Bang Na,Bangkok,10260,Thailand,13.6696251,100.6134002,+66 2 399 2127,,"Laid-back hotel offering streamlined rooms & free Wi-Fi, plus a co-working space.",0
Convenient Park Hotel,Hotel,"12 Sukhumvit 62/3 Alley, Bang Chak, Phra Khanong, Bangkok 10260",Bang Chak,Phra Khanong,Bangkok,10260,Thailand,13.6891299,100.6079073,+66 2 741 6710,https://convenientparkbangkok.thailandhotels.site/,"Unassuming property offering basic rooms & suites, plus a restaurant & a fitness room.",0
B2 Bangna Premier Hotel / บีทู บางนา,Hotel,"9 Soi Sringarindra 65, Nong Bon, Prawet, Bangkok 10250",Nong Bon,Prawet,Bangkok,10250,Thailand,13.674043,100.6467094,+66 2 102 5882,https://www.b2hotel.com/th/bangkok/b2-bangna-premier-hotel/,Understated quarters in an informal hotel offering a terrace & complimentary Wi-Fi.,0
A2 HOTEL,"Apartment building, Fitness center","908 Bangna-Trad soi 12 Bangna-Trad Road South, Bangna, Bang Na, Bangkok 10260",Bangna,Bang Na,Bangkok,10260,Thailand,13.6670307,100.6198208,+66 84 088 5350,,"Modest hotel offering a restaurant & a fitness center, plus an outdoor pool & a Thai spa.",0
Marsi Hotel Bangkok,"Hotel, Restaurant","125 ถนน สุขุมวิท 101/1 บางจาก Phra Khanong, Bangkok 10260",บางจาก,Phra Khanong,Bangkok,10260,Thailand,13.6845108,100.613893,+66 2 399 1970,http://www.marsihotel.com/,Streamlined rooms & suites in a relaxed hotel offering a restaurant & Wi-Fi access.,0
Maple Hotel,Hotel,"9 Srinakarin Rd, Bang Na Tai, Bang Na, Bangkok 10260",Bang Na Tai,Bang Na,Bangkok,10260,Thailand,13.6683884,100.6468686,+66 2 366 9222,https://www.maplehotel.website/th/,"Chic rooms & suites, some with city views, in a hotel with an upscale restaurant & an outdoor pool.",0
Niran Grand Hotel,Hotel,"1 Soi Udomsuk 17 Sukhumvit 103 Rd, Bang Na Tai, Bangna Bangkok 10260",Bang Na Tai,Bangna,Bangkok,10260,Thailand,13.6791053,100.6164797,+66 2 361 0080,http://www.nirangrandbangkok.com/,"Straightforward rooms in a cozy hotel featuring a serene spa, a rooftop pool & a restaurant.",0
ORION Hotel & Residence,Hotel,"54 ซอย บางนา-ตราด 30 Khwaeng Bang Na, Bang Na, Bangkok 10260",Bang Na Tai,Bang Na,Bangkok,10260,Thailand,13.6638312,100.630692,+66 2 399 5444,http://orionhotelbangna.com/,,0
The TEPP,"Extended stay hotel, Furnished apartment building, Holiday apartment rental, Serviced apartment","88 Khang Rong Wai Alley, Bang Na Tai, Bang Na, Bangkok 10260",Bang Na Tai,Bang Na,Bangkok,10260,Thailand,13.6575352,100.621284,+66 2 744 4804,https://utm.io/uh7f,,0
The Riski Hotel @ Bangphlat Station SHA,"Hotel, Auditorium, Inn, Serviced apartment, Student dormitory","359 1 ซอย 77 Bang Phlat, Bangkok 10700",Bang Phlat,Bang Phlat,Bangkok,10700,Thailand,13.7904148,100.5025538,+66 98 190 5090,https://www.theriski-bangphlat.com/?utm_source=googlemap&utm_medium=GMB&utm_campaign=Googlemybusiness,,0
The Royal River Hotel,Hotel,"219 Soi Charan Sanitwong 66/1, Bang Phlat, Bangkok 10700",Bang Phlat,Bang Phlat,Bangkok,10700,Thailand,13.7835552,100.500675,+66 2 422 9222,http://www.royalriverhotel.com/,"Low-key riverfront lodging offering relaxed quarters, a modern piano bar & an outdoor pool.",0
DD Garden Apartment 2,Extended stay hotel,"Boromratchonnani Road Bangbumru, Bang Phlat, Bangkok 10700",Bang Phlat,Bang Phlat,Bangkok,10700,Thailand,13.7864551,100.4706878,+66 64 287 6878,https://ddgardenapartment2.business.site/?utm_source=gmb&utm_medium=referral,,0
Amarin Hotel Rama 8,Hotel,"204/2 Soi Arun Ammarin 49, Bang Yi Khan, Bang Phlat, Bangkok 10700",Bang Yi Khan,Bang Phlat,Bangkok,10700,Thailand,13.7717409,100.487725,+66 2 424 9888,https://www.amarinhg.com/,Streamlined rooms with flat-screens & Wi-Fi in an informal hotel featuring parking & a lobby lounge.,0
P Park Residence Charansanitwong,"Serviced apartment, Hotel",ึ ตึกพีปาร์คเรซซิเด็นซ์ ซอย จรัญสนิทวงศ์ 95/2 ถนนจรัญสนิทวงศ์ ซอยจรัญสนิทวงศ์ 95/2 ตำบลบางอ้อ อำเภอบางพลัด Bangkok 10700,ตำบลบางอ้อ,อำเภอบางพลัด,Bangkok,10700,Thailand,13.8058345,100.5113053,+66 2 885 5478,,,0
Praya Palazzo,"Hotel, Boutique, Event venue, Villa, Wedding venue","757 1 ถ. สมเด็จพระปิ่นเกล้า Bang Yi Khan, Bang Phlat, Bangkok 10700",Bang Yi Khan,Bang Phlat,Bangkok,10700,Thailand,13.7659413,100.4935126,+66 81 402 8118,http://www.prayapalazzo.com/,"Refined hotel in a riverside mansion offering an outdoor pool & bar, plus free breakfast.",0
Riva Surya Bangkok,Hotel,"23 Phra Athit Rd, Chana Songkhram, Phra Nakhon, Bangkok 10200",Chana Songkhram,Phra Nakhon,Bangkok,10200,Thailand,13.7621441,100.493128,+66 2 633 5000,https://www.rivasuryabangkok.com/en/?partner=6212&utm_source=google&utm_medium=gmb&utm_campaign=web_link,"Polished quarters in an upscale riverside hotel with terrace dining, an outdoor pool & a hot tub.",0
โกมลเรสซิเดนซ์ กรุงเทพ Komol Residence Bangkok,"Extended stay hotel, Serviced apartment","976 Borommaratchachonnani Rd, Bang Bumru, Bang Phlat, Bangkok 10700",Bang Bumru,Bang Phlat,Bangkok,10700,Thailand,13.78631,100.471642,+66 92 249 2001,,,0
Budget Bed Boutique Hotel,Hostel,"475 Charan Sanitwong 57 Alley, Lane 3-7, Bang Bumru, Bang Phlat, Bangkok 10700",Bang Bumru,Bang Phlat,Bangkok,10700,Thailand,13.7809664,100.4831102,+66 81 835 4654,,,0
Lamphu House Bangkok,Guest house,"75, 77 Ram Buttri, Chana Songkhram, Phra Nakhon, Bangkok 10200",Chana Songkhram,Phra Nakhon,Bangkok,10200,Thailand,13.7615091,100.4958966,+66 2 629 5861,http://www.lamphuhouse.com/,"No-frills rooms, some with air-conditioning & private bathrooms, in a basic hotel with a cafe/bar.",0
Beyond Suite Hotel,Hotel,"99 Charan Sanit Wong Rd, Bang Ao, Bang Phlat, Bangkok 10700",Bang Ao,Bang Phlat,Bangkok,10700,Thailand,13.7954514,100.5065372,+66 2 879 7199,http://www.beyondsuitebangkok.com/th/home.html,"Warm rooms & suites in a polished lodging offering a restaurant, a rooftop garden & an indoor pool.",0
Anwari Hotel,Hotel,"2/2 Charan Sanitwong 70/3 Alley Khwaeng Bang Phlat, Khet Bang Phlat, Bang Phlat, Banh Phlat, Bangkok 10700",Bang Phlat,Banh Phlat,Bangkok,10700,Thailand,13.7898636,100.5034466,+66 2 424 1247,https://anwarihotel.zoombookdirect.com/,,0
Trang Hotel Bangkok,Hotel,"99/1 Wisut Kasat, Bang Khun Phrom, Phra Nakhon, Bangkok 10200",Bang Khun Phrom,Phra Nakhon,Bangkok,10200,Thailand,13.764906,100.503627,+66 2 282 7100,http://www.tranghotelbangkok.com/,"Unfussy rooms in a casual lodging offering Cantonese dining, an outdoor pool & a karaoke bar.",0
Sudyod Apartment,Hotel,"46 Borommaratchachonnani Rd, Bang Bumru, Bang Phlat, Bangkok 10700",Bang Bumru,Bang Phlat,Bangkok,10700,Thailand,13.775652,100.481053,+66 82 333 3312,https://sudyod-resort-apartment.business.site/,,0
Sabye Bangkok,Hotel,"80 80/1-80/8 Soi Samsen 6, Ban Phan Thom, Phra Nakhon, Bangkok 10200",Ban Phan Thom,Phra Nakhon,Bangkok,10200,Thailand,13.7629402,100.5018418,+66 2 106 2591,https://sabyebangkokhotel.com/,"Hotel offering informal quarters, some with balconies, plus a restaurant & a bar.",0
56 Surawong Hotel Bangkok,Hotel,"56 Thanon Surawong, Silom, Bang Rak, Bangkok 10500",Silom,Bang Rak,Bangkok,10500,Thailand,13.7300383,100.5311334,+66 2 267 3579,http://www.56surawong.com/,,0
Le Siam Hotel,Hotel,"3 Convent Rd, Silom, Bang Rak, Bangkok 10500",Silom,Bang Rak,Bangkok,10500,Thailand,13.7268723,100.5338143,+66 2 233 5345,http://www.lesiamhotel.com/,"Modern, colorful hotel with bright rooms & suites, plus a relaxed cafe/bar & an outdoor pool.",0
Kokotel Bangkok Surawong,Hotel,"5, 181/1-5 Thanon Surawong, Suriya Wong, Bang Rak, Bangkok 10500",Suriya Wong,Bang Rak,Bangkok,10500,Thailand,13.7275325,100.5244741,+66 83 973 2181,https://www.kokotel.com/surawong/,Streamlined rooms with free Wi-Fi in a whimsical property offering a cafe/bar & a play area.,0
LUXX Silom (Bangkok),Hotel,"6, 11 Decho Rd, Suriya Wong, Bang Rak, Bangkok 10500",Suriya Wong,Bang Rak,Bangkok,10500,Thailand,13.7262351,100.5252848,+66 2 635 8800,http://www.staywithluxx.com/,"Elegant boutique hotel offering chic accommodations with Japanese wood tubs, plus a library/lounge.",0
Heaven Boutique Hotel Bangkok,Hotel,"44, Silom Plaza, 491, 43 Silom Rd, Bang Rak, Bangkok 10500",Silom,Bang Rak,Bangkok,10500,Thailand,13.7258652,100.5277003,+66 2 233 6666,,,0
The Raya Surawong Bangkok Hotel,Resort hotel,"24-30 Thanon Surawong, Si Phraya, Bang Rak, Bangkok 10500",Si Phraya,Bang Rak,Bangkok,10500,Thailand,13.7304461,100.53281,+66 2 238 0969,http://www.therayabangkok.com/,"Bright, contemporary rooms & suites in a relaxed hotel with a cafe, a TV lounge & free Wi-Fi.",0
The Tarntawan Hotel Surawong,Hotel,"119 5-10 Thanon Surawong, Suriya Wong, Bang Rak, Bangkok 10500",Suriya Wong,Bang Rak,Bangkok,10500,Thailand,13.7291749,100.5302745,+66 2 238 2620,https://www.tarntawansurawong.com/,"Down-to-earth hotel offering informal rooms & suites, as well as a restaurant & complimentary Wi-Fi.",0
Hotel Furama Silom,Hotel,"533 Si Lom, Silom, Bang Rak, Bangkok 10500",Silom,Bang Rak,Bangkok,10500,Thailand,13.72476,100.525299,+66 2 688 6888,http://www.furama.com/silom,"Contemporary rooms in an upscale lodging featuring a warm restaurant, a rooftop pool & a gym.",0
Red Planet Bangkok Surawong,Hotel,"178 Thanon Surawong, Si Phraya, Bang Rak, Bangkok 10500",Si Phraya,Bang Rak,Bangkok,10500,Thailand,13.7289212,100.5269745,+66 2 637 0146,http://www.redplanethotels.com/hotel/surawong-bangkok/?utm_source=google&utm_medium=googlemybusiness&utm_campaign=surawong,"Informal property offering a relaxed restaurant, plus complimentary parking & Wi-Fi.",0
ibis Styles Bangkok Silom,Hotel,"289 Silom Rd, Silom, Bang Rak, Bangkok 10500",Silom,Bang Rak,Bangkok,10500,Thailand,13.7274881,100.5315567,+66 2 352 5999,https://all.accor.com/lien_externe.svlt?goto=fiche_hotel&code_hotel=B6N1&merchantid=seo-maps-TH-B6N1&sourceid=aw-cen&utm_medium=seo+maps&utm_source=google+Maps&utm_campaign=seo+maps&y_source=1_MTcyMTkyOTItNzE1LWxvY2F0aW9uLndlYnNpdGU%3D,,0
Nantra Silom Hotel,Hotel,"130 8-12 Silom 8 Alley, Suriya Wong, Bang Rak, Bangkok 10500",Suriya Wong,Bang Rak,Bangkok,10500,Thailand,13.7277457,100.5303597,+66 86 341 7278,http://nantrahotelsresorts.com/NantraSilom/,"Warmly furnished rooms in a straightforward hotel offering a cafe, a terrace & free Wi-Fi.",0
Baan Silom Soi 3,Hotel,"Silom Rd, Silom, Bang Rak, Bangkok 10500",Silom,Bang Rak,Bangkok,10500,Thailand,13.725648,100.531125,+66 2 235 4300,https://baansilomsoi3.thailandhotels.site/,Unpretentious hotel near Sala Daeng Skytrain station offering modest rooms & a furnished terrace.,0
FuramaXclusive Sathon Hotel,Hotel,"59 Si Lom 3, Silom, Bang Rak, Bangkok 10500",Silom,Bang Rak,Bangkok,10500,Thailand,13.7238537,100.5310331,+66 2 266 8030,https://www.furama.com/xclusive/sathorn/,"Upscale lodging offering a restaurant & an outdoor pool, plus a fitness room & a sauna.",0
HQ Hostel,Hostel,"323 ถนน สีลม 5/3-4 Si Lom 3, Silom, Bang Rak, Bangkok 10500",Silom,Bang Rak,Bangkok,10500,Thailand,13.7265283,100.5309952,+66 2 233 1598,https://www.facebook.com/HQhostelsilom/,"Simple hostel with basic dorms & private rooms, plus breakfast, a noodle restaurant & a coffee shop.",0
Dreamcatcher Bangkok,"Hostel, Bar, Cafe","9, 5 Si Lom 3, Silom, Bang Rak, Bangkok 10500",Silom,Bang Rak,Bangkok,10500,Thailand,13.7262173,100.5313738,+66 88 604 5467,https://dreamcatcherbangkok.thailandhotels.site/,Functional mixed-gender dorms & private rooms in a trendy hostel offering a rooftop terrace & a bar.,0
iSanook Bangkok,Hotel,"118 Soi Song Phra, Maha Phruttharam, Bang Rak, Bangkok 10500",Maha Phruttharam,Bang Rak,Bangkok,10500,Thailand,13.7325265,100.5217103,+66 2 633 3636,http://www.i-sanook.com/,"Straightforward hotel offering airy rooms & suites, plus a rooftop pool & restaurant.",0
Malizon Hotel & Residences | โรงเเรมมะลิซ้อน เรสซิเด้นซ์,Hotel,"56 Soi Krungtepnon 4, Tambon Bang Khen, ตำบลตลาดขวัญ, Nonthaburi 11000",Bang Khen,ตำบลตลาดขวัญ,Nonthaburi,11000,Thailand,13.8371615,100.5197818,+66 2 052 5499,https://www.malizon.com/,Casual quarters with balconies in a colorful hotel offering complimentary parking.,0
The State Apartment,Holiday apartment,"496, 35 Pracha Rat Sai 2 Rd, Khwaeng Bang Sue, Bang Sue, Bangkok 10800",Bang Sue,Bang Sue,Bangkok,10800,Thailand,13.8056583,100.5299335,+66 81 442 5516,https://www.booking.com/hotel/th/the-state.html,,0
Livotel Express Hotel Bang Kruai Nonthaburi,Hotel,"การไฟฟ้าฝ่ายผลิต 60/111 ซ.กำนันอุทัย, ถ Bang Kruai, Bang Kruai District, Nonthaburi 11130",Bang Kruai,Bang Kruai District,Nonthaburi,11130,Thailand,13.81086,100.508019,+66 2 880 6888,http://www.renthub.in.th/en/the-a-plus-mansion,Simply decorated rooms with balconies in a relaxed hotel featuring a restaurant & a terrace.,0
Bangkok Travel Suites Hotel,Hotel,"86/3 Moo.9 Ngamwongwan Rd., Bangken, Muang Nonthaburi, บางเขน, เมืองนนทบุรี, Nonthaburi 11000",บางเขน,เมืองนนทบุรี,Nonthaburi,11000,Thailand,13.8552206,100.5327688,+66 92 261 4394,http://www.bangkoktravelsuiteshotel.com/,Modest rooms in a low-key property featuring a fitness room & complimentary breakfast.,0
The Loft Resort,Resort hotel,"89 76-77 Wong Sawang 19 Alley, Bang Sue, Bangkok 10800",Bang Sue,Bang Sue,Bangkok,10800,Thailand,13.8240963,100.517524,+66 2 913 0557,http://www.theloftresortbkk.com/,Relaxed rooms & suites with balconies in an informal hotel offering a restaurant & a garden.,0
Bangpho Story - บางโพ สตอรี่,Hostel,"393/5 Pracharat Sai 2 Khwaeng Bang Sue, Bang Sue, Bangkok 10800",Bang Sue,Bang Sue,Bangkok,10800,Thailand,13.8065321,100.521082,+66 65 287 8909,,,0
Siam Palace Hotel,Hotel,"3 soi Pradipat10, Khwaeng Samsen Nai, Phaya Thai, Bangkok 10400",Samsen Nai,Phaya Thai,Bangkok,10400,Thailand,13.7900562,100.5421626,+66 2 271 1199,https://th-th.facebook.com/siampalacethailand/,,0
Siam Paradise Hotel / Siam Paradise entertainment Complex,"Entertainment, Hotel, Sauna, Spa and health club, Thai restaurant","Ngamwongwan Rd, Lat Yao, Chatuchak, Bangkok 10900",Lat Yao,Chatuchak,Bangkok,10900,Thailand,13.851413,100.554876,+66 84 000 0663,http://www.siamparadisehotel.com/,"Stylish, modern accommodations with rainfall showers, plus a restaurant, a karaoke bar & a spa.",0
The Garden Place,Hotel,"93 Soi Chula Kasem 16/4/2, Tambon Bang Khen, Mueang Nonthaburi District, Nonthaburi 11000",Bang Khen,Mueang Nonthaburi District,Nonthaburi,11000,Thailand,13.8489266,100.539684,+66 84 559 0243,https://www.facebook.com/The-Garden-Place-%E0%B8%87%E0%B8%B2%E0%B8%A1%E0%B8%A7%E0%B8%87%E0%B8%A8%E0%B9%8C%E0%B8%A7%E0%B8%B2%E0%B8%99-109800504710117,Humble rooms with balconies & suites with kitchenettes in a low-key hotel with a rooftop pool.,0
Riverine Place Hotel and Residence,"Hotel, Serviced apartment","167 Phibun Songkhram Rd, Tambon Suan Yai, Mueang Nonthaburi District, Nonthaburi 11000",Suan Yai,Mueang Nonthaburi District,Nonthaburi,11000,Thailand,13.8285851,100.5006986,+66 2 966 6111,http://www.riverineplace.com/,"Airy quarters in an upscale apartment hotel offering an outdoor pool, a restaurant & river views.",0
Oakwood Suites Tiwanon Bangkok,"Serviced accommodation, Hotel","229 Thanon Krungthep-Nonthaburi, Bang Khen Sub-District, Bangkok 11000",None,Bang Khen Sub-District,Bangkok,11000,Thailand,13.8388349,100.5153659,,https://www.discoverasr.com/en/oakwood/thailand/oakwood-suites-tiwanon-bangkok?utm_source=google&utm_medium=gmb&utm_campaign=HQ-google-gmb-alwayson-20230220-all-en-th-th-oakwoodsuitestiwanonbangkok-eme,,0
G9 Bangkok,Lodging,"1032/26-27 Soi Phahon Yothin 18/1 Yeak 2, Opposite Channel 7 Khwaeng Chom Phon, Chatuchak, Bangkok 10900",Chatuchak,Chatuchak,Bangkok,10900,Thailand,13.8036163,100.5564099,+66 2 617 8888,http://www.g9bangkok.com/,"Casual lodging featuring sleek rooms & streamlined dorms, plus free Wi-Fi & a rooftop lounge.",0
Riski Residence Ngamwongwan,"Inn, Extended stay hotel, Indoor lodging, Student dormitory","Ngamwongwarn 8 Alley, Tambon Bang Khen, Mueang Nonthaburi District, Nonthaburi 11000",Bang Khen,Mueang Nonthaburi District,Nonthaburi,11000,Thailand,13.8540587,100.5348811,+66 2 951 9500,http://www.riski-residence.com/,,0
IWISH HOTEL,Hotel,"441/5 Ngamwongwan Rd, Tambon Bang Khen, Mueang Nonthaburi District, Nonthaburi 11000",Bang Khen,Mueang Nonthaburi District,Nonthaburi,11000,Thailand,13.856909,100.5440872,+66 2 591 3366,http://www.iwishhotel.com/,Functional rooms & suites in an informal hotel featuring a restaurant & a rooftop bar.,0
Bangkok Living Apartment,"Apartment building, Extended stay hotel","Bangkok Living Apartment, 96/5 Pradiphat Rd, Samsen Nai, Phaya Thai, Bangkok 10400",Samsen Nai,Phaya Thai,Bangkok,10400,Thailand,13.7919068,100.5368885,+66 80 264 8833,http://www.bangkokliving.co.th/,,0
at bangkok hotel,Hotel,"169, 12 Pradiphat Rd, แขวง พญาไท Phaya Thai, Bangkok 10400",แขวง พญาไท,Phaya Thai,Bangkok,10400,Thailand,13.7909711,100.5432487,+66 2 279 0503,https://www.facebook.com/Atbangkok2018/,"No-frills rooms in a casual hotel offering a relaxed restaurant & a spa area, plus free breakfast.",0
Centara Grand at Central Plaza Ladprao Bangkok,"Hotel, Convention center, Restaurant, Spa","1695 Phahonyothin Road, Chatuchak, Bangkok 10900",Chatuchak,Chatuchak,Bangkok,10900,Thailand,13.8177999,100.5598281,+66 2 541 1234,http://www.centarahotelsresorts.com/centaragrand/cglb/,"Grand hotel featuring 7 restaurants, 2 bars & a shopping arcade, plus a spa & a gym.",0
My Hotel Bangkok Noi,Hotel,"155/10 43 ซอย อรุณอัมรินทร์ Arun Amarin, Bangkok Noi, Bangkok 10700",Arun Amarin,Bangkok Noi,Bangkok,10700,Thailand,13.7678353,100.4842043,+66 86 752 5584,https://www.facebook.com/profile.php?id=100090262712797,,0
CHANN | Bangkok-Noi,"Hotel, Cafe, Restaurant","30/1 Soi Somdej Pra Pinklaow 1(Behind Wat Dusidharam, 27 Borommaratchachonnani Rd, Arun Amarin, Bangkok Noi, Bangkok 10700",Arun Amarin,Bangkok Noi,Bangkok,10700,Thailand,13.7614567,100.4868775,+66 82 632 3994,https://www.facebook.com/ChannBangkokNoi,"Modern rooms, some with balconies, in a relaxed hotel offering a restaurant & a riverfront deck.",0
SCENE BangkokNoi Hotel Bangkok,Hotel,"61, 1-8 Arun Amarin Rd, Arun Amarin, Bangkok Noi, Bangkok 10700",Arun Amarin,Bangkok Noi,Bangkok,10700,Thailand,13.7651107,100.4829875,+66 2 434 9855,https://scenebangkoknoihotel.thailandhotels.site/,,0
W1@Bangkoknoi,Hotel,"21 44 หมู่ 7 ซ.บางเลน 2 ถ. บางกรวย - ไทรน้อย Bang Len, Bang Yai District, Nonthaburi 11140",Bang Len,Bang Yai District,Nonthaburi,11140,Thailand,13.8371217,100.4260689,+66 2 195 1111,http://www.w1bangkoknoi.com/,,0
Baan Wang Lang Riverside,"Hotel, Bar, Coffee shop, Guest house, Restaurant","ริมแม่น้ำกรุงเทพ 342 Trok Watrakhang Alley, Siri Rat, Bangkok Noi, Bangkok 10700",Siri Rat,Bangkok Noi,Bangkok,10700,Thailand,13.7548,100.4865068,+66 2 412 7234,http://www.baanwanglang.com/,"Casual hotel offering a restaurant, a rooftop bar & a cafe, plus river views & free Wi-Fi.",0
New Siam Palace Ville Hotel,"Hotel, Restaurant","56 Rong Mai Alley, Chanasongkram, Phranakorn, Bangkok 10200",Chanasongkram,Phranakorn,Bangkok,10200,Thailand,13.7600966,100.4932265,+66 2 282 4142,http://www.newsiampalaceville.com/,"Casual lodging offering straightforward rooms with balconies, plus free breakfast & an outdoor pool.",0
Thamrongin Hotel,Hotel,"665 6 Charan Sanit Wong Rd, Arun Amarin, Bangkok Noi, Bangkok 10700",Arun Amarin,Bangkok Noi,Bangkok,10700,Thailand,13.7679684,100.4770651,+66 2 435 7450,https://thamronginhotel.thailandhotels.site/,Colorful rooms & suites in a refined hotel with a restaurant & a bar,0
Sleep Withinn Bangkok,"Hotel, Guest house, Lodge","76 Ram Buttri, Khwaeng Talat Yot, Phranakorn, Bangkok 10200",Talat Yot,Phranakorn,Bangkok,10200,Thailand,13.7602278,100.4969212,+66 2 280 3070,http://www.sleepwithinn.com/,Contemporary rooms with traditional decor in a relaxed budget property featuring a rooftop pool.,0
Buddy Boutique Inn,Hotel,"66 Chakrabongse Rd, Talat Yot, Phra Nakhon, Bangkok 10200",Talat Yot,Phra Nakhon,Bangkok,10200,Thailand,13.7593514,100.4954631,+66 2 629 1177,http://www.buddyboutiqueinn.com/,"Contemporary lodging with an industrial-chic vibe, featuring free Wi-Fi & air-conditioning.",0
ISSARA House Bangkok Hotel,Hotel,"260/37-39, Between, 36 Itsaraphap Rd, Wat Arun, Bangkok Yai, Bangkok 10600",Wat Arun,Bangkok Yai,Bangkok,10600,Thailand,13.73964,100.4853033,+66 98 229 9459,https://issarahousebangkok.thailandhotels.site/,,0
Theatre Residence,Hotel,"69, 4-8 Wat Rakhang Kositaram Woramahawihan Alley, Siri Rat, Bangkok Noi, Bangkok 10700",Siri Rat,Bangkok Noi,Bangkok,10700,Thailand,13.7536969,100.4860907,+66 2 866 2066,http://www.theatreresidence.com/,"Upscale hotel featuring river views, as well as an outdoor pool with poolside dining.",0
Sivalai Place,"Apartment building, Hostel, Hotel","168 Soi Isaraphab 33, Isaraphab Rd Bangkok 10600",Wat Tha Phra,Bangkok Yai,Bangkok,10600,Thailand,13.7427624,100.4770174,+66 2 412 4000,https://www.sivalaiplace.com/,"Unpretentious apartment hotel featuring a restaurant, tennis & a cafe, as well as an outdoor pool.",0
CASA 17 Hotel,Hotel,"163/14 Soi Somdet Phra Pinklao 17 Somdet Phra Pin Klao Rd, Bangkok Noi, Bangkok 10700",Arun Amarin,Bangkok Noi,Bangkok,10700,Thailand,13.769226,100.4836605,+66 2 424 9142,https://www.casa17hotel.com/,,0
Feel Good Bangkok Hostel,"Hostel, Serviced apartment","161/2, Soi Somdej Pra Pinklao 17 Arun Amarin Bangkok Noi Bangkok 10700",Arun Amarin,Bangkok Noi,Bangkok,10700,Thailand,13.7697765,100.4840848,+66 94 909 0978,https://feelgoodbkk.com/,Streamlined quarters with Wi-Fi in a casual hostel featuring a guest lounge & a shared kitchen.,0
Arun Old Town Hostel,Hostel,"Arun Old Town Hostel, 260/16 Itsaraphap Rd, Wat Arun, Bangkok Yai, Bangkok 10600",Wat Arun,Bangkok Yai,Bangkok,10600,Thailand,13.7393239,100.4848529,+66 96 245 6361,,Simple dorms & private rooms in a laid-back hostel offering a communal kitchen & a rooftop terrace.,0
NIL BKK,Hotel,"Wat, NIL BKK 168/11 Phetchakasem 16, Wat Tha Phra, Bangkok Yai, Bangkok 10600",Wat Tha Phra,Bangkok Yai,Bangkok,10600,Thailand,13.7283908,100.470651,+66 98 258 1849,https://nilbkk.thailandhotels.site/,,0
Hotels โรงแรม ท่าพระ hotel bangkok ที่พักใกล้ MRT ท่าพระ เอสพี,Hotel,"127 2 Petchkasem Rd, Wat Tha Phra, Bangkok Yai, Bangkok 10600",Wat Tha Phra,Bangkok Yai,Bangkok,10600,Thailand,13.7290694,100.4749591,+66 64 801 0919,"http://sppark.simdif.com/,%20https://www.facebook.com/hostelmrtthaphra",,0
ท๊อปเทล ท่าพระ Toptel Thaphra เพชรเกษม 16,Apartment complex,"212/248 Petchkasem Rd, Wat Tha Phra, Bangkok Yai, Bangkok 10600",Wat Tha Phra,Bangkok Yai,Bangkok,10600,Thailand,13.7289587,100.4710034,+66 65 526 1646,https://www.facebook.com/toptel16/,,0
season place,Corporate office,"61/15 Petchkasem Rd, Wat Tha Phra, Bangkok Yai, Bangkok 10600",Wat Tha Phra,Bangkok Yai,Bangkok,10600,Thailand,13.7284367,100.4776579,+66 81 819 0710,http://www.seasonapartment.com/th/,,0
Riva Arun Bangkok,Hotel,"392, 25-28 Maharaj Road Phra Borom Maha Ratchawang, Phra Nakhon, Bangkok 10200",Phra Borom Maha Ratchawang,Phra Nakhon,Bangkok,10200,Thailand,13.7442385,100.4919255,+66 2 221 1859,https://www.rivaarunbangkok.com/en/?partner=6212&utm_source=google&utm_medium=gmb&utm_campaign=web_link,Bright rooms & suites in an elegant hotel with an elegant rooftop restaurant offering river views.,0
ARUN Riverside Bangkok (อรุณริเวอร์ไซด์),Hotel,"87-89 ถนนมหาราช แขวงพระบรมมหาราชวัง, พระบรมมหาราชวัง, Phra Nakhon, Bangkok 10200",พระบรมมหาราชวัง,Phra Nakhon,Bangkok,10200,Thailand,13.7449611,100.4911868,+66 2 221 5651,http://www.arunriverside.com/,,0
Kasayapi Hotel,Hotel,"102, 1 Itsaraphap Rd, Wat Arun, Bangkok Yai, Bangkok 10600",Wat Arun,Bangkok Yai,Bangkok,10600,Thailand,13.7380203,100.4855376,+66 98 279 5707,https://www.kasayapi.com/,,0
sala rattanakosin Bangkok,"Hotel, Bar, Restaurant, Thai restaurant","39 Maha Rat Rd, Phra Borom Maha Ratchawang, Phra Nakhon, Bangkok 10200",Phra Borom Maha Ratchawang,Phra Nakhon,Bangkok,10200,Thailand,13.7452707,100.4909116,+66 2 622 1388,https://www.salahospitality.com/rattanakosin/?partner=6937&utm_source=Google&utm_medium=Google%20My%20Business&utm_campaign=Web_Link,"Stylish rooms, some with river views, in a sleek hotel offering an open-air rooftop bar.",0
Achcha อัชฌา - cafe and room,"Cafe, Hotel","23 Itsaraphap 23 Alley, Wat Arun, Bangkok Yai, Bangkok 10600",Wat Arun,Bangkok Yai,Bangkok,10600,Thailand,13.7375179,100.4855081,+66 82 465 9824,,,0
INN A DAY,"Hotel, Boutique, Guest house, Inn","61 Maha Rat Rd, Khwaeng Phra Borom Maha Ratchawang, Phra Nakhon, Bangkok 10200",Phra Borom Maha Ratchawang,Phra Nakhon,Bangkok,10200,Thailand,13.745043,100.491178,+66 2 221 0577,http://www.innaday.com/,"Industrial-chic rooms in trendy lodging with breakfast, plus a restaurant, a bar & a terrace.",0
Sala Arun Hotel โรงแรมศาลาอรุณ,Hotel,"47-49 Tha Tian Aly, Phra Borom Maha Ratchawang, หาราชวัง, Bangkok 10200",Phra Borom Maha Ratchawang,หาราชวัง,Bangkok,10200,Thailand,13.7452887,100.4909858,+66 2 622 2932,http://www.salaarun.com/,Polished rooms in a premium hotel offering a refined restaurant & a rooftop bar with river views.,0
neil niwas นีลนิวาส,Hotel,"86 Soi Itsaraphap 28, Khwaeng Wat Arun, Bangkok Yai, Bangkok 10600",Wat Arun,Bangkok Yai,Bangkok,10600,Thailand,13.7372038,100.4875084,+66 95 793 2874,https://neilniwas.com/,,0
EKANAKE HOSTEL,Hostel,"112, 8 Arun Amarin Rd, ศิริราช, Bangkok Noi, Bangkok 10700",ศิริราช,Bangkok Noi,Bangkok,10700,Thailand,13.7525322,100.4836912,+66 63 802 2234,https://hostel-987.business.site/,"Laid-back dorms & private rooms in a modest hostel offering a cafe & a communal pantry, plus Wi-Fi.",0
"THE NEUF @RATCHADA,BANGKOK",Hotel,"544/1 Yu Charoen 1 Alley, Din Daeng, Bangkok 10400",Din Daeng,Din Daeng,Bangkok,10400,Thailand,13.7632206,100.5652793,+66 80 959 2895,https://lin.ee/AJAg7v2,,0
Centric Place Hotel,Hotel,"502/29 ซอย อยุ่เจริญ Thanon Asok - Din Daeng, Samsen Nai, Din Daeng, Bangkok 10400",Samsen Nai,Din Daeng,Bangkok,10400,Thailand,13.7579515,100.5642397,+66 2 246 0909,https://centricplacehotel.thailandhotels.site/,"Streamlined rooms in an unfussy hotel offering complimentary breakfast & Wi-Fi, plus a restaurant.",0
Amanta Hotel & Residence Ratchada,"Hotel, Serviced apartment","77 88 Ratchadaphisek Rd, Din Daeng, Bangkok 10407",Din Daeng,Din Daeng,Bangkok,10407,Thailand,13.7652956,100.5673912,+66 2 660 6300,http://www.visitamanta.com/ratchada,"Modern all-suite hotel with a glass-enclosed restaurant, plus an outdoor pool & a gym.",0
The Nhorm Hotel (เดอะ โณม โฮเทล),Hotel,"556 5-7 ซอย นาทอง แยก 7 Din Daeng, Bangkok 10400",Din Daeng,Din Daeng,Bangkok,10400,Thailand,13.7711205,100.5713271,+66 2 102 1182,https://nhormhotel.com/,,0
Roseate Ratchada Hotel,Hotel,"504/1 Ratchadaphisek 3 Alley, Din Daeng, Bangkok 10400",Din Daeng,Din Daeng,Bangkok,10400,Thailand,13.7605846,100.5643429,+66 2 642 1470,https://roseateratchada.thailandhotels.site/,,0
BADBED Hotel,Hotel,"58, 1 Inthamara 45 Alley, Din Daeng, Bangkok 10400",Din Daeng,Din Daeng,Bangkok,10400,Thailand,13.7861978,100.5691935,+66 2 003 3580,https://badbed-hotel.business.site/?copy,,0
โรงแรมโรสิเอ็ท กรุงเทพ,Hotel,"9 ซอย ประชาสงเคราะห์ 21 Din Daeng, Bangkok 10400",Din Daeng,Din Daeng,Bangkok,10400,Thailand,13.771576,100.5598522,+66 81 631 7115,https://rosiate-hotel-bangkok.business.site/,,0
Leelawadee Modern Resort,"Inn, Hotel","5489/7 ซอย รัชดาภิเษก 13 ถนน ประชาสงเคราะห์ Din Daeng, Bangkok 10400",Din Daeng,Din Daeng,Bangkok,10400,Thailand,13.7797374,100.5711454,+66 2 362 8844,,,0
Panmanee Apartment (ปานมณี อพาร์ทเม้น),"Hotel, Apartment complex","Phrom Sut Anuson Alley, Din Daeng, Bangkok 10400",Din Daeng,Din Daeng,Bangkok,10400,Thailand,13.7939404,100.5712078,+66 83 465 6879,http://www.panmaneeapartment.com/,,0
Buddy Place,Hotel,"Prachasook Rd, Dindang, Din Daeng, Bangkok 10400",Dindang,Din Daeng,Bangkok,10400,Thailand,13.7847552,100.5673655,+66 89 483 0018,,,0
Hotel Paraíso,"Inn, Wellness hotel","253 โรงแรมพาราอิโซ (รัชดาภิเษก-ห้วยขวาง Pracha Rat Bamphen 1 Alley, Din Daeng, Bangkok 10400",Din Daeng,Din Daeng,Bangkok,10400,Thailand,13.7808555,100.5727505,+66 81 631 7115,https://www.renthub.in.th/%E0%B9%82%E0%B8%AE%E0%B9%80%E0%B8%95%E0%B9%87%E0%B8%A5-%E0%B8%9E%E0%B8%B2%E0%B8%A3%E0%B8%B2%E0%B8%AD%E0%B8%B4%E0%B9%82%E0%B8%8B,,0
Watana Hotel,Hotel,"209 Soi Ratchadaphisek 17, Din Daeng, Bangkok 10400",Din Daeng,Din Daeng,Bangkok,10400,Thailand,13.7864871,100.5726666,+66 2 275 0111,,"Unfussy rooms in a casual hotel with a restaurant, an outdoor pool & free breakfast.",0
Ratchada Boutique Hotel,Hotel,"282 Ratchadaphisek 7, Din Daeng, Bangkok 10400",Din Daeng,Din Daeng,Bangkok,10400,Thailand,13.7728642,100.570677,+66 2 274 6449,http://www.ratchadaboutiquehotel.com/,"Slick hotel featuring modern quarters with complimentary Wi-Fi, as well as a lobby cafe.",0
The Key Point Hotel,Hotel,"2010 Pracha Songkhro Rd, Khwaeng Din Daeng, Din Daeng, Bangkok 10400",Din Daeng,Din Daeng,Bangkok,10400,Thailand,13.7708625,100.5603261,+66 92 496 9716,https://web.facebook.com/thekeypointhotel/,,0
LITA Bangkok,Serviced apartment,"306/6 Kiattichai Alley, Din Daeng, Bangkok 10400",Din Daeng,Din Daeng,Bangkok,10400,Thailand,13.7571479,100.5644257,+66 80 441 6692,http://www.litabangkok.com/,,0
Dusit Suites Hotel Ratchadamri,Hotel,"3 Ratchadamri Rd, Lumphini, Khet Pathum Wan, Bangkok 10330",Lumphini,Pathum Wan,Bangkok,10330,Thailand,13.7388734,100.5411037,+66 2 264 6464,http://www.dusit.com/dusitsuites-ratchadamribangkok/?utm_source=google_maps&utm_medium=seo_maps&utm_campaign=seo_maps,"Airy units with free Wi-Fi in an upscale all-suite hotel offering a cafe, a gym & an outdoor pool.",0
CASA BLANCA Dusit,"Hostel, Cafe","2 Phitsanulok Rd, Khwaeng Dusit, Dusit District, Bangkok 10300",Dusit,Dusit District,Bangkok,10300,Thailand,13.7704659,100.5048714,+66 65 635 2446,https://casablancabkk.com/,,0
The Siam Hotel,"Hotel, Restaurant, Spa","The Siam 3, 2 Thanon Khao, Vachirapayabal, Dusit District, Bangkok 10300",Vachirapayabal,Dusit District,Bangkok,10300,Thailand,13.7811383,100.5059915,+66 2 206 6999,http://www.thesiamhotel.com/,"Luxury hotel with chic suites & villas, as well as 3 restaurants, an infinity pool & a spa.",0
Prince Palace Hotel Bangkok,Hotel,"488 BoBae Tower 800 Damrong Rak Rd, Klong Mahanak Pomprab Bangkok 10100",Klong Mahanak,Pomprab,Bangkok,10100,Thailand,13.7539375,100.5158362,+66 2 628 1111,https://www.princepalace.co.th/,"Classically decorated rooms in a hotel with 2 restaurants, a sushi bar, a beer garden & a spa.",0
UMA Residence,Hotel,"580 Si Yan 1 Alley, Thanon Nakhon Chai Si, Dusit District, Bangkok 10300",Thanon Nakhon Chai Si,Dusit District,Bangkok,10300,Thailand,13.7842747,100.5131807,+66 2 669 3296,http://www.umaresidence.com/,"Laid-back rooms & suites in a polished hotel offering an outdoor pool & lounges, plus a garden.",0
BANGKOK MIDTOWN HOTEL,Hotel,"888 ถนน พระราม6 Thung Phaya Thai, Ratchathewi, Bangkok 10400",Thung Phaya Thai,Ratchathewi,Bangkok,10400,Thailand,13.7570945,100.5236352,+66 2 034 3888,http://www.bangkokmidtownhotel.com/,"Warm quarters in a casual property offering a restaurant, a pool & a spa, plus free Wi-Fi.",0
Bangkok Oasis Hotel,Hotel,"111 Rama VI Rd, Thung Phaya Thai, Ratchathewi, Bangkok 10400",Thung Phaya Thai,Ratchathewi,Bangkok,10400,Thailand,13.7574268,100.5258452,+66 2 002 0555,http://www.bangkokoasishotel.com/,"Casual hotel offering airy dorms & private rooms, most with balconies, plus a lounge & a garden.",0
"Royal Princess Larn Luang, Bangkok",Hotel,"269 Lan Luang Rd, วัดโสมนัส Pom Prap Sattru Phai, Bangkok 10100",วัดโสมนัส,Pom Prap Sattru Phai,Bangkok,10100,Thailand,13.757256,100.512867,+66 2 281 3088,http://www.royalprincesslarnluang.com/,"Unfussy rooms in a warm property featuring a spa, an outdoor saltwater pool & 4 restaurants.",0
Villa Bangkok Hotel,Hotel,"457 Phra Sumen Rd, Wat Bowon Niwet, Phra Nakhon, Bangkok 10200",Wat Bowon Niwet,Phra Nakhon,Bangkok,10200,Thailand,13.759097,100.5032333,+66 80 085 0085,http://www.villabangkokhotel.com/,"Relaxed canalside hotel featuring unfussy quarters, plus a garden & a waterfront terrace.",0
Hotel VELA be Bangkok Ratchathewi,Hotel,"598 Soi Phaya Nak, Khwaeng Thanon Phetchaburi, Ratchathewi, Bangkok 10400",Thanon Phetchaburi,Ratchathewi,Bangkok,10400,Thailand,13.752256,100.526673,+66 2 216 2363,https://www.vela360hotels.com/vela-be-bangkok-ratchathewi/,"Relaxed quarters in a casual property offering a cafe, a communal kitchenette & an outdoor pool.",0
Suan Dusit Place Hotel,Hotel,"295 Nakhon Ratchasima Rd, Wachira Phayaban, Dusit District, Bangkok 10300",Wachira Phayaban,Dusit District,Bangkok,10300,Thailand,13.7754914,100.5108948,+66 2 241 7571,,,0
YANH Ratchawat Hotel,Hotel,"1376, 1 Thanon Nakhon Chaisi Rd, Khwaeng Thanon Nakhon Chai Si, Dusit District, Bangkok 10300",Thanon Nakhon Chai Si,Dusit District,Bangkok,10300,Thailand,13.7790549,100.5227861,+66 2 180 6450,http://yanhhotel.com/,,0
Tim Mansion Bangkok Hotel,"Hotel, Guest house, Restaurant","337 Maha Chai Rd, Samran Rat, Phra Nakhon, Bangkok 10200",Samran Rat,Phra Nakhon,Bangkok,10200,Thailand,13.7524414,100.5047271,+66 65 353 2549,http://www.timmansionbkk.com/,Colorful rooms with flat-screen TVs at a downtown hotel offering a restaurant & a coffee shop.,0
LiT BANGKOK Hotel,Hotel,"36/1 Kasem San 1 Alley, Khwaeng Wang Mai, Pathum Wan, Bangkok 10330",Wang Mai,Pathum Wan,Bangkok,10330,Thailand,13.7481024,100.5295718,+66 2 612 3456,http://www.litbangkok.com/hotel,"Refined hotel in a modern building offering an outdoor pool, a gym & a spa, plus dining & 2 bars.",0
Swana Bangkok Hotel,Hotel,"332 Visuttikasat Road, Khwaeng Ban Phan Thom, Pranakorn, Bangkok 10200",Ban Phan Thom,Pranakorn,Bangkok,10200,Thailand,13.7646853,100.5028918,+66 2 282 8899,http://www.swanabangkok.com/,"Down-to-earth hotel offering chic rooms, plus a relaxed restaurant with outdoor seating.",0
ibis Styles Bangkok Ratchada,Hotel,"212 Ratchadaphisek Rd, Khwaeng Huai Khwang, Huai Khwang, Bangkok 10310",Huai Khwang,Huai Khwang,Bangkok,10310,Thailand,13.7772777,100.5741279,+66 2 820 8888,https://all.accor.com/lien_externe.svlt?goto=fiche_hotel&code_hotel=A9G9&merchantid=seo-maps-TH-A9G9&sourceid=aw-cen&utm_medium=seo+maps&utm_source=google+Maps&utm_campaign=seo+maps&y_source=1_MTUzNjEwMzgtNzE1LWxvY2F0aW9uLndlYnNpdGU%3D,"Streamlined rooms with smart TVs in a contemporary hotel with a bar, a restaurant & a terrace.",0
Mybed Ratchada Bangkok hotel,Hotel,"8, 67 Ratchadaphisek Rd, Chom Phon, Chatuchak, Bangkok 10900",Chom Phon,Chatuchak,Bangkok,10900,Thailand,13.8056135,100.5752304,+66 2 975 9975,http://www.mybedbangkok.com/,"Straightforward hotel in the city center, offering modest rooms & complimentary Wi-Fi.",0
SWISSOTEL BANGKOK RATCHADA,"Hotel, Restaurant","204 Ratchadaphisek Rd, Huai Khwang, Bangkok 10320",Huai Khwang,Huai Khwang,Bangkok,10320,Thailand,13.7765139,100.574198,+66 2 694 2222,https://www.swissotel.com/hotels/bangkok-ratchada/?goto=fiche_hotel&code_hotel=A5B6&merchantid=seo-maps-TH-A5B6&sourceid=aw-cen&utm_medium=seo+maps&utm_source=google+Maps&utm_campaign=seo+maps&y_source=1_MTIzNjEzNzEtNzE1LWxvY2F0aW9uLndlYnNpdGU=,"Elegant quarters in a high-end hotel with an outdoor pool, a spa & 4 restaurants, plus event space.",0
B2 Huai Khwang Premier Hotel / บีทู ห้วยขวาง พรีเมียร์,Hotel,"9 Inthamara 49 Alley, Khwaeng Din Daeng, Din Daeng, Bangkok 10400",Din Daeng,Din Daeng,Bangkok,10400,Thailand,13.7844048,100.5676255,+66 2 100 6755,http://www.b2hotel.com/bangkok/b2-huai-khwang-premier-hotel/,,0
S Ratchada Leisure Hotel,Hotel,"52 Thiam Ruam Mit Rd, Huai Khwang, Bangkok 10310",Huai Khwang,Huai Khwang,Bangkok,10310,Thailand,13.7668653,100.5829247,+66 2 246 0795,http://www.sratchadahotel.com/,"Streamlined rooms in a contemporary hotel offering a restaurant, a bar & a saltwater pool.",0
My Hotel CMYK@Ratchada,Hotel,"225, 4 Pracha Rat Bamphen 5 Alley, Huai Khwang, Bangkok 10310",Huai Khwang,Huai Khwang,Bangkok,10310,Thailand,13.779063,100.5758553,+66 2 692 8899,http://www.myhotelratchada.com/,"Modern hotel with colorful decor, plus an international cafe/bakery & a business center.",0
Rest@Ratchada hotel,Hotel,"252/3 Ratchadaphisek Rd, Huai Khwang, Krung Thep Maha Nakhon 10310",Huai Khwang,Huai Khwang,Bangkok,10310,Thailand,13.7852611,100.5762557,+66 96 883 9480,https://www.facebook.com/Rest-at-Ratchada-Hotel-110470684202161/,,0
Nest by Sangob,"Hotel, Bed & breakfast","446 Soi Pracha Uthit 16 (Soi Thoranin4), Huai Khwang, Bangkok 10310",Huai Khwang,Huai Khwang,Bangkok,10310,Thailand,13.7692041,100.581085,+66 63 628 7445,https://nestbysangob.thailandhotels.site/,"Relaxed hotel with an outdoor pool, a leafy rooftop terrace & a cafe, plus free breakfast.",0
The Mini R Ratchada Hotel,Hotel,"161 Ratchadaphisek Rd, Din Daeng, Bangkok 10400",Din Daeng,Din Daeng,Bangkok,10400,Thailand,13.7730958,100.5730776,+66 2 689 5173,http://www.theminihotel.com/,"Simple rooms in an informal hotel offering a restaurant, plus free breakfast, parking & Wi-Fi.",0
Chiva Bangkok Hotel,"Hotel, Serviced accommodation, Serviced apartment","39/1 Soi Soonvijai 7 New Petchburi Road Soi 47, Bangkapi, Huay Kwang, Bangkok 10310",Bang Kapi,"Bangkapi, Huay Kwang",Bangkok,10310,Thailand,13.7509823,100.5834492,+66 2 716 5290,https://chivaresidencebangkok.thailandhotels.site/,"Polished apartments with private balconies & city views in a sleek hotel, plus a restaurant.",0
Diamond Residence Ratchada Hotel,Hotel,"96 Udom Suk Alley, Huai Khwang, Bangkok 10310",Huai Khwang,Huai Khwang,Bangkok,10310,Thailand,13.7873911,100.5766392,+66 2 693 0077,http://www.diamondratchadahotel.com/,"Bright, simple rooms in a casual hotel with a free area shuttle, plus a market & a restaurant.",0
Praso @ Ratchada 12,Hotel,"194 Ratchadaphisek 12 Alley, Huai Khwang, Bangkok 10310",Huai Khwang,Huai Khwang,Bangkok,10310,Thailand,13.7750551,100.574771,+66 2 290 0055,http://www.prasoratchada12.com/,"Sleek rooms & suites with balconies in a casual hotel offering free breakfast, a pool & a cafe.",0
Lancaster Bangkok,Hotel,"1777 Phetchaburi Rd, Huai Khwang, Bangkok 10310",Huai Khwang,Huai Khwang,Bangkok,10310,Thailand,13.748591,100.5668978,+66 2 262 8000,https://www.lancasterbangkok.com/,"Polished lodging offering a rooftop pool & bar with city views, plus a spa & free shuttle service.",0
NICE Hotel Ratchada,Hotel,"416/8 Soi Pracha Rat Bamphen 20, Samsen Nok, Huai Khwang, Bangkok 10310",Samsen Nok,Huai Khwang,Bangkok,10310,Thailand,13.7770623,100.5831275,+66 82 722 4888,http://www.nicehotel.biz/,,0
Atrium Boutique Resort Hotel,"Hotel, Inn, Resort hotel","258 Pracha Uthit Rd, Huai Khwang, Bangkok 10310",Huai Khwang,Huai Khwang,Bangkok,10310,Thailand,13.7743556,100.5784664,+66 2 690 2888,http://www.atriumboutique-th.com/,Contemporary rooms & suites in a laid-back hotel with an outdoor pool & a casual cafe.,0
Q-box Hotel Bangkok Blossom,Hotel,"90/1 Ram Inthra Rd, Ram Inthra, Khan Na Yao, Bangkok 10230",Ram Inthra,Khan Na Yao,Bangkok,10230,Thailand,13.8185514,100.6795167,+66 61 417 3999,http://www.qboxblossom.com/,Unpretentious rooms in a contemporary hotel featuring a restaurant/bar & an outdoor pool.,0
OYO 519 B Min Airport,Hotel,"3 B Min Airport Soi Tharakon 3, Min Buri, Bangkok 10510",Min Buri,Min Buri,Bangkok,10510,Thailand,13.7999209,100.7126281,+66 2 026 1271,https://www.oyorooms.com/92723/,"Straightforward budget hotel offering parking & Wi-Fi, plus modest rooms featuring balconies.",0
PP Hotel Bangkok (SHA Plus+),"Hotel, Hostel","1 Ramkhamhaeng Rd, Khwaeng Min Buri, Min Buri, Bangkok 10510",Min Buri,Min Buri,Bangkok,10510,Thailand,13.7959723,100.7099115,+66 94 226 4656,https://www.facebook.com/pphotelbangkok,,0
Synsiri Panya-Ram Inthra,Inn,"93, Panya Indra Rd, Khwaeng Khan Na Yao, Khan Na Yao, Bangkok 10230",Khan Na Yao,Khan Na Yao,Bangkok,10230,Thailand,13.8297589,100.6751378,,http://www.synsiri.com/,Down-to-earth rooms in a straightforward hotel featuring a garden terrace & a lounge.,0
Ze Residence Ram Intra,Hotel,"1 Rarm Intra 77 Alley, Ram Inthra, Khan Na Yao, Bangkok 10230",Ram Inthra,Khan Na Yao,Bangkok,10230,Thailand,13.8408133,100.6654437,+66 61 397 7714,http://zeresidenceramintra.zoombookdirect.com/,Simply furnished rooms in a down-to-earth hotel featuring parking & Wi-Fi access.,0
Nest n Rest Hotel,Hotel,"194 Rachada-Ramintra Rd, Nuanchan, Bueng Kum, Bangkok 10230",Nuanchan,Bueng Kum,Bangkok,10230,Thailand,13.8185462,100.6526708,+66 2 510 5999,http://nestnrest.com/,,0
S Bangkok Navamin,Hotel,"1009 ซอย นวลจันทร์ 4 Khwaeng Nuanchan, Bueng Kum, Bangkok 10230",Nuanchan,Bueng Kum,Bangkok,10230,Thailand,13.8156297,100.6522688,+66 2 509 3133,http://www.sbangkokhotel.com/,"Airy rooms in an understated hotel offering a restaurant, a gym & an outdoor pool.",0
Grow Residence,"Furnished apartment building, Apartment building","765 Ram Inthra Rd, Khwaeng Khan Na Yao, Khan Na Yao, Bangkok 10230",Khan Na Yao,Khan Na Yao,Bangkok,10230,Thailand,13.8197573,100.683627,+66 2 540 4230,https://growresidence.com/,"Streamlined studios & apartments in a modest hotel offering a restaurant, a garden & free breakfast.",0
Grand Mandarin Residence,"Hotel, Apartment building","152 ซอย ลาดพร้าว 130 Khlong Chan, Bang Kapi District, Bangkok 10240",Khlong Chan,Bang Kapi District,Bangkok,10240,Thailand,13.77061,100.6319529,+66 2 733 9159,https://grandmandarinresidence.thailandhotels.site/,Simply decorated rooms with flat-screens in a down-to-earth hotel offering parking.,0
ห้องพัก โรงแรม มีนบุรี The All 24 Luxury Residence,Hotel,"Suwinthawong 4, Min Buri, Bangkok 10510",Min Buri,Min Buri,Bangkok,10510,Thailand,13.8139296,100.7248907,+66 97 151 0800,http://theall24.business.site/,Simply furnished rooms with balconies & flat-screens in a casual hotel offering parking & Wi-Fi.,0
ลีลา รีสอร์ท,Resort hotel,"Nimit Mai 59, Sam Wa Tawan Ok, Khlong Sam Wa, Bangkok 10510",Sam Wa Tawan Ok,Khlong Sam Wa,Bangkok,10510,Thailand,13.910834,100.7379578,+66 85 115 2327,https://resort-hotel-6204.business.site/?utm_source=gmb&utm_medium=referral,,0
The Diamond 789 Minburi,Hotel,"24 Suwinthawong 4, Min Buri, Bangkok 10510",Min Buri,Min Buri,Bangkok,10510,Thailand,13.8159812,100.7239186,+66 96 939 1545,http://www.thediamond789.com/,,0
Plume Residence Minburi,"Hotel, Apartment building, Apartment complex, Inn, Serviced apartment","222 SRIHABURANUKIT 11 Suwinthawong 8, Min Buri, Bangkok 10510",Min Buri,Min Buri,Bangkok,10510,Thailand,13.8175282,100.7256332,+66 2 136 1429,https://lin.ee/kwWoQn1,,0
The Island Resort รามอินทรา,Hotel,"8 ซอย 99 ถนน รามอินทรา Khwaeng Khan Na Yao, Khan Na Yao, Bangkok 10230",Khan Na Yao,Khan Na Yao,Bangkok,10230,Thailand,13.825246,100.680809,+66 98 857 2596,https://theislandresortbkk.com/th/,,0
Smart Hotel,Hotel,"47 18 หมู่ 11 ซอยราหุละ 1 Lat Sawai, Lam Luk Ka District, Pathum Thani 12150",Lat Sawai,Lam Luk Ka District,Pathum Thani,12150,Thailand,13.9231582,100.6933264,+66 84 697 2222,http://smarthotelthailand.com/,,0
S.K. Mansion (ห้องพักรายวันรามอินทรา),"Hostel, Hotel","1 1 ซอย คู้บอน 6 Ram Inthra, Khan Na Yao, Bangkok 10230",Ram Inthra,Khan Na Yao,Bangkok,10230,Thailand,13.8426771,100.6632576,+66 2 943 2378,https://www.skresort.co/,"Streamlined rooms, some with balconies, in a down-to-earth hotel featuring complimentary Wi-Fi.",0
OYO 478 The Diamond 24 Minburi,Hotel,"24 Suwinthawong 4, Min Buri, Bangkok 10510",Min Buri,Min Buri,Bangkok,10510,Thailand,13.8159812,100.7239186,+66 2 026 1271,https://www.oyorooms.com/th/hotels-in-Bangkok/?utm_source=Google_gmb_so_TH&utm_medium=Organic&utm_campaign=TH_BGK092&locale=en,,0
Naturbliss Resort Village,"Resort hotel, Holiday apartment rental, Holiday home, Non smoking holiday home, Homestay","28 Soi Ram Intra 67, Ram Inthra, Khan Na Yao, Bangkok 10230",Ram Inthra,Khan Na Yao,Bangkok,10230,Thailand,13.8448304,100.6546138,+66 99 967 2489,https://naturbliss-resort-village.business.site/,,0
ibis Bangkok Riverside,Hotel,"27 Soi Charoen Nakhon 17, Banglamphulang, Khet Khlong San, Bangkok 10600",Banglamphulang,Khlong San,Bangkok,10600,Thailand,13.7176387,100.509499,+66 2 659 2888,https://all.accor.com/lien_externe.svlt?goto=fiche_hotel&code_hotel=7026&merchantid=seo-maps-TH-7026&sourceid=aw-cen&utm_medium=seo+maps&utm_source=google+Maps&utm_campaign=seo+maps&y_source=1_MTUzNTgyOTAtNzE1LWxvY2F0aW9uLndlYnNpdGU%3D,"Simple, colorful rooms in a casual property with an outdoor pool, a bar & a tapas restaurant.",0
Millennium Hilton Bangkok,"Hotel, Banquet hall, Conference center, Event venue, Spa and health club, Wedding venue","123 Charoen Nakhon Rd, Khlong Ton Sai, Khlong San, Bangkok 10600",Khlong Ton Sai,Khlong San,Bangkok,10600,Thailand,13.7284021,100.5095113,+66 2 442 2000,https://www.hilton.com/en/hotels/bkkhitw-millennium-hilton-bangkok/?SEO_id=GMB-APAC-TW-BKKHITW,"Plush rooms & suites in sleek hotel with dining & jazz, plus a rooftop bar, a pool & a spa.",0
Amdaeng Bangkok Riverside Hotel,Hotel,"เลขที่ 12/1 หมู่ - หมู่บ้าน - ซอย เชียงใหม่ Chiang Mai Rd, Khlong San, Bangkok 10600",Khlong San,Khlong San,Bangkok,10600,Thailand,13.7353788,100.5074562,+66 2 162 0138,http://www.amdaeng.com/,"Chic rooms in a fashionable boutique hotel with a rooftop bar & an outdoor pool, plus river views.",0
The Peninsula Bangkok,"Hotel, Fine dining restaurant, Meeting planning service, Spa, Wedding venue","333 Charoen Nakhon Rd, Khlong Ton Sai, Khlong San, Bangkok 10600",Khlong Ton Sai,Khlong San,Bangkok,10600,Thailand,13.7231212,100.5108006,+66 2 020 2888,https://www.peninsula.com/en/bangkok/5-star-luxury-hotel-riverside?htl=pbk&utm_medium=organic&utm_source=googlemybusiness,"Luxury riverfront hotel with 3 chic restaurants, 2 bars & a posh spa, plus an outdoor pool.",0
FOODOTEL,Hotel,"26,28,30 Charoen Nakhon Soi4 Charoen Nakhon Rd, Khlong Ton Sai, Khlong San, Bangkok 10600",Khlong Ton Sai,Khlong San,Bangkok,10600,Thailand,13.726887,100.5081829,+66 2 438 9555,http://www.foodotel.com/,"Polished hotel offering a country-style restaurant & breakfast, plus cozy rooms with floral accents.",0
Aim House Bangkok Hotel,"Hotel, Hostel","95 99 Charoen Nakhon Rd, Khlong Ton Sai, Khlong San, Bangkok 10600",Khlong Ton Sai,Khlong San,Bangkok,10600,Thailand,13.7220347,100.5054127,+66 2 861 1128,http://www.aimhousehotel.com/,Warmly decorated rooms & suites in a simple hotel featuring complimentary Wi-Fi & a garden.,0
The Quarter Chao Phraya by UHG,Hotel,"1190 Soi Somdet Chao Phraya 17, Khlong San, Bangkok 10600",Khlong San,Khlong San,Bangkok,10600,Thailand,13.7315708,100.5090254,+66 2 044 4999,https://www.quarterchaophraya.com/,,0
Grand Tower Inn (Sathon),Hotel,"359, 1 Krung Thon Buri Road, Khlong Ton Sai, Khlong San, Bangkok 10600",Khlong Ton Sai,Khlong San,Bangkok,10600,Thailand,13.7208719,100.5073929,+66 2 861 2288,http://www.grandtowerinn.com/,"Streamlined rooms in a polished budget lodging offering a restaurant, plus free breakfast & Wi-Fi.",0
King Royal II Hotel,Hotel,"291/6 Krung Thon Buri Road, Khlong Ton Sai, Khlong San, Bangkok 10600",Khlong Ton Sai,Khlong San,Bangkok,10600,Thailand,13.7215539,100.5068316,+66 86 328 0965,https://kingroyal2.thailandhotels.site/,Down-to-earth rooms & suites in a no-nonsense hotel offering Wi-Fi access & a gym.,0
7 Days Premium Hotel at Icon Siam Station,Hotel,"122/4 Latyha Road Klongsan, Khlong San, Bangkok 10600",Khlong San,Khlong San,Bangkok,10600,Thailand,13.7265038,100.4944443,+66 2 101 1989,https://7-days-premium-at-iconsiam.business.site/?utm_source=gmb&utm_medium=referral,,0
Anandpura Riverside Hotel,Hotel,"104 Charoen Nakhon 49 Alley, Bang Lamphu Lang, Khlong San, Bangkok 10600",Bang Lamphu Lang,Khlong San,Bangkok,10600,Thailand,13.7083417,100.501065,+66 2 438 2814,https://www.anandpurariverside.com/,,0
โรงแรมฮ็อป อินน์ กรุงเทพ สถานีกรุงธนบุรี HOP INN Bangkok Krung Thonburi Station,Hotel,"89/1 Krung Thon Buri Road Khlong Ton Sai Sub District, Khlong San, Bangkok 10600",Khlong Ton Sai,Khlong San,Bangkok,10600,Thailand,13.7212354,100.5037356,+66 2 659 2899,https://www.hopinnhotel.com/th/our-hotels/hop-inn-bangkok-krung-thonburi-station,,0
Bella B All Suite Bangkok,Hotel,"369 Charoen Nakhon Rd, Khlong Ton Sai, Khlong San, Bangkok 10600",Khlong Ton Sai,Khlong San,Bangkok,10600,Thailand,13.7209914,100.5067407,+66 2 861 3411,https://bellaballsuitebangkok.thailandhotels.site/,,0
Away Bangkok Riverside Kene,Hotel,"1 Charoen Nakhon 35 Alley, Khwaeng Bang Lamphu Lang, Khlong San, Bangkok 10600",Bang Lamphu Lang,Khlong San,Bangkok,10600,Thailand,13.7113415,100.5034132,+66 2 437 2168,http://www.crosshotelsandresorts.com/awaybangkok,"Retro rooms in a sleek hotel featuring an indoor pool & a gym, as well as a cafe with a terrace.",0
The Salil Hotel Riverside - Bangkok,Hotel,"2052, 7-9 Charoen Krung 72/-1 Alley, Wat Phraya Krai, Bang Kho Laem, Bangkok 10120",Wat Phraya Krai,Bang Kho Laem,Bangkok,10120,Thailand,13.7079308,100.5073483,+66 2 844 8787,https://thesalilriverside.com/,,0
Inn Trog And Inn Soi,Hostel,"142 Lat Ya Road 174-176 ladya rd, klongsarn , klongsarn bangkok Bangkok 10600",Khlong San,Khlong San,Bangkok,10600,Thailand,13.7265668,100.4950525,+66 81 628 9845,https://www.facebook.com/inntrogsoi/,,0
Chatrium Hotel Riverside Bangkok,Hotel,"28 Charoen Krung Rd, Wat Phraya Krai, Bang Kho Laem, Bangkok 10120",Wat Phraya Krai,Bang Kho Laem,Bangkok,10120,Thailand,13.7108744,100.5095152,+66 2 307 8888,https://www.chatrium.com/chatriumriversidebangkok/,"Premium apartment hotel beside a river, plus a spa, 3 restaurants & a lagoon-style outdoor pool.",0
Decor Do Hostel,Hotel,"58 Charoen Nakhon Rd, Khlong Ton Sai, Khlong San, Bangkok 10600",Khlong Ton Sai,Khlong San,Bangkok,10600,Thailand,13.7211808,100.507722,+66 62 868 5888,http://www.decordohostel.com/,Laid-back dorms & private rooms in a lively hostel offering a shared kitchen & a balcony.,0
Room for you,Hotel,"36/40​หมู่1ซอยหนึ่งคอนโด(ทางออก)​, Thanon Chaeng Watthana, Thung Song Hong, Lak Si, Bangkok 10210",Thung Song Hong,Lak Si,Bangkok,10210,Thailand,13.8926114,100.5631315,+66 88 602 9218,http://www.roomforyoubkk.com/,Simple quarters with free Wi-Fi in a laid-back budget hotel near Don Mueang International Airport.,0
The Journey Hotel Laksi,Hotel,"345, 65 Soi Ngam Wong Wan 47 Yaek 44, Thung Song Hong, Lak Si, Bangkok 10210",Thung Song Hong,Lak Si,Bangkok,10210,Thailand,13.8706853,100.5586534,+66 2 954 9226,http://www.thejourneyhotel.com/,Airy rooms & suites in a laid-back lodging featuring complimentary Wi-Fi & a gym.,0
TK. Palace Hotel & Convention,Hotel,"54/7 Thanon Chaeng Watthana, Thung Song Hong, Lak Si, Bangkok 10210",Thung Song Hong,Lak Si,Bangkok,10210,Thailand,13.8912446,100.5612773,+66 2 574 1588,https://www.tkpalace.com/,"Polished business hotel featuring a cafe & a restaurant, plus an outdoor pool & a gym.",0
RAMA GARDENS HOTEL BANGKOK- SHA Extra Plus Certified,Hotel,"9/9 Vibhavadi Rangsit Rd, Talat Bang Khen, Lak Si, Bangkok 10210",Talat Bang Khen,Lak Si,Bangkok,10210,Thailand,13.8625891,100.5703911,+66 2 558 7888,https://ramagardenshotel.com/,"Modern rooms & suites in an upscale hotel with 5 restaurants, a spa, a gym & an outdoor pool.",0
Centra by Centara Government Complex Hotel & Convention Centre Chaeng Watthana,"Hotel, Convention center","The Government Complex 120 ถนน แจ้งวัฒนะ Khwaeng Thung Song Hong, Khet Lak Si, Bangkok 10210",Thung Song Hong,Lak Si,Bangkok,10210,Thailand,13.8837591,100.5648433,+66 2 143 1234,http://www.centarahotelsresorts.com/centra/cgc/,"Contemporary business hotel offering conference & event space, plus dining, free parking & a gym.",0
Miracle Grand Convention Hotel,"Hotel, Chinese restaurant, Coffee shop, Convention center, Event venue, Fitness center, Japanese restaurant, Spa, Swimming pool, Wedding venue","99 Vibhavadi Rangsit Rd, Talat Bang Khen, Lak Si, Bangkok 10210",Talat Bang Khen,Lak Si,Bangkok,10210,Thailand,13.876461,100.5758229,+66 2 575 5599,https://miraclegrandhotel.com/,"Straightforward property offering 2 restaurants & a bar, as well as an outdoor pool & event space.",0
Jumbo Hotel Bangkok,Hotel,"34/41 Thanon Chaeng Watthana, Thung Song Hong, Lak Si, Bangkok 10210",Thung Song Hong,Lak Si,Bangkok,10210,Thailand,13.8929624,100.5618016,+66 2 573 1240,https://www.facebook.com/jumbotelhotelbangkok/,Simple rooms with balconies in a casual hotel offering a fitness room & a lobby lounge.,0
Narra Hotel,Hotel,"Chang Watthana 13 Alley, Thung Song Hong, Lak Si, Bangkok 10210",Thung Song Hong,Lak Si,Bangkok,10210,Thailand,13.8917905,100.5624943,+66 2 042 8112,https://narrahotel.thailandhotels.site/,"Relaxed rooms in a city center hotel offering a laid-back restaurant & a gym, plus free Wi-Fi.",0
The Willing Hotel and Residence,Hotel,"101/66, 15 Thanon Chaeng Watthana, Thung Song Hong, Lak Si, Bangkok 10210",Thung Song Hong,Lak Si,Bangkok,10210,Thailand,13.8885849,100.5607688,+66 81 824 5281,https://thewillinghotel.com/,Simple rooms with flat-screens in a humble hotel featuring a rooftop terrace & a dining area.,0
Casa Residence Hotel,Hotel,99/282 ซอย เบญจมิตร ถนน แจ้งวัฒนะ ทุ่งสองห้อง หลักสี่ Bangkok 10210,ทุ่งสองห้อง,หลักสี่,Bangkok,10210,Thailand,13.8893656,100.5759618,+66 2 575 0333,http://www.casaresidencehotel.com/,"Casual hotel in a contemporary building with a cafe, plus simple rooms & breakfast.",0
RedDoorz Khunnoy Hotel,Apartment building,"36 35 Thanon Chaeng Watthana, Thung Song Hong, Lak Si, Bangkok 10210",Thung Song Hong,Lak Si,Bangkok,10210,Thailand,13.8928414,100.5630082,+66 87 671 7485,https://www.reddoorz.com/th-th/hotel/thailand/bangkok/lak-si/thung-song-hong/reddoorz-khunnoy-hotel/?,,0
Delight Residence,Hotel,"54/10 อาคาร 1 Chaeng Watthana 15 Alley, Lane 1, Thung Song Hong, Lak Si, Bangkok 10210",Thung Song Hong,Lak Si,Bangkok,10210,Thailand,13.8905192,100.5615795,+66 86 228 1515,http://www.delightresidence.com/,,0
Asawin Grand Convention Hotel,Hotel,"VHFF+PR6, 88 Vibhavadi Rangsit Rd, Talat Bang Khen, Lak Si, Bangkok 10210",Talat Bang Khen,Lak Si,Bangkok,10210,Thailand,13.8741687,100.5748662,+66 2 159 5888,http://www.asawinhotel.com/,"Premium convention hotel featuring 2 restaurants, a bar & a spa, plus an infinity pool & city views.",0
Mida Hotel Don Mueang Airport,Hotel,"99/401-486 ซ.แจ้งวัฒนะ 10, Chaeng Watthana 10 Alley, Lane 2, Thung Song Hong, Lak Si, Bangkok 10210",Thung Song Hong,Lak Si,Bangkok,10210,Thailand,13.8895169,100.5784572,+66 2 574 1648,https://www.midahoteldonmueangairport.com/,"Modern lodging with polished quarters, plus 2 refined restaurants & an outdoor pool.",0
ibis Bangkok IMPACT,Hotel,"93 Popular Road, Banmai Subdistrict, NONTHABURI, 11120",Ban Mai,NONTHABURI,Nonthaburi,11120,Thailand,13.9163038,100.5520192,+66 2 011 7777,https://all.accor.com/lien_externe.svlt?goto=fiche_hotel&code_hotel=9060&merchantid=seo-maps-TH-9060&sourceid=aw-cen&utm_medium=seo+maps&utm_source=google+Maps&utm_campaign=seo+maps&y_source=1_MTUzNjEyNDItNzE1LWxvY2F0aW9uLndlYnNpdGU%3D,Colorful rooms in a contemporary hotel featuring a 24-hour cafe/bar & an airy restaurant.,0
Louis' Tavern โรงแรมหลุยส์ แทเวิร์น,Hotel,"64 Vibhavadi Rangsit Rd, Talat Bang Khen, Lak Si, Bangkok 10210",Talat Bang Khen,Lak Si,Bangkok,10210,Thailand,13.8744721,100.5819137,+66 2 551 2191,https://www.louistavernhotel-bkk.com/,"Relaxed lodging offering free breakfast, plus a restaurant, a bar & an outdoor pool.",0
PN Home Service,Serviced apartment,"164 Chalong Krung Rd Lam Prathew, Lat Krabang, Bangkok 10520",Lam Prathew,Lat Krabang,Bangkok,10520,Thailand,13.7537417,100.7894775,+66 80 224 3939,https://www.facebook.com/PNHomeService/,,0
ทองทารีสอร์ท สุวรรณภูมิ (ลาดกระบัง 46/4),Hotel,"1888 Lat Krabang Rd, Khwaeng Lat Krabang, Khet Lat Krabang, Bangkok 10520",Lat Krabang,Lat Krabang,Bangkok,10520,Thailand,13.7197952,100.7759116,+66 2 326 7259,,"Unfussy airport hotel with bright rooms & open-air dining, plus free Wi-Fi & shuttle service.",0
Floral Shire Resort (Suvarnabhumi Airport),Hotel,"56 Soi 42, Lat Krabang, Bangkok 10520",Lat Krabang,Lat Krabang,Bangkok,10520,Thailand,13.7172398,100.7650391,+66 87 815 8589,http://floral-shire-resort-suvarnabhumi-airport.business.site/,"Relaxed resort with a restaurant, a bar & massages, plus free breakfast & an airport shuttle.",0
The Great Residence Hotel,"Hotel, Extended stay hotel, Holiday apartment rental","1892/1-3 1892 1-3 Lat Krabang Rd, Lat Krabang, Bangkok 10520",Lat Krabang,Lat Krabang,Bangkok,10520,Thailand,13.7167316,100.7760569,+66 2 326 7206,http://www.thegreatresidence.com/,"Casual hotel featuring down-to-earth rooms & suites, plus an outdoor pool & a restaurant.",0
The Phoenix Hotel Bangkok,Hotel,"88 Ladkrabang 7 Ladkrabang Road, ซอย หมู่บ้านไทยสมุทร Lat Krabang, Bangkok 10520",Lat Krabang,Lat Krabang,Bangkok,10520,Thailand,13.7232514,100.7537277,+66 2 737 1446,http://www.phoenixhotelbangkok.com/,"Unfussy rooms & suites in an unassuming budget hotel with a restaurant, a cafe & free breakfast.",0
Grand Pinnacle Hotel,Hotel,"1666/1 5 Lat Krabang 11 Alley, Lat Krabang, Bangkok 10520",Lat Krabang,Lat Krabang,Bangkok,10520,Thailand,13.7222995,100.7716803,+66 2 327 3879,,,0
A-PORT,Hotel,"840/1 King Kaeo Rd, Lat Krabang, Bangkok 10520",Lat Krabang,Lat Krabang,Bangkok,10520,Thailand,13.7200638,100.7399088,+66 2 181 2275,,"Pared-down rooms in a relaxed hotel with an informal restaurant, a spa & airport transportation.",0
Panini residence,"Lodge, Shopping mall","1 Lat Krabang 38 Alley, Lat Krabang, Bangkok 10520",Lat Krabang,Lat Krabang,Bangkok,10520,Thailand,13.7206944,100.7564963,+66 2 737 1212,http://www.paniniplaza.com/,,0
Golden Foyer Suvarnabhumi Airport Hotel,Hotel,"541/8 Luang-phaeng, Tub-Yao, Ladkrabang, Bangkok 10520",Tub-Yao,Ladkrabang,Bangkok,10520,Thailand,13.721523,100.7953066,+66 2 056 4255,http://www.goldenfoyerbangkok.com/,"Streamlined rooms in a straightforward airport hotel offering an outdoor pool, a bar & a restaurant.",0
Suvarnabhumi Suite Hotel,"Hotel, Hostel",1675/1 Soi Latkrabang11/13 Latkrabang Road Latkrabang Bangkok 10520,Lat Krabang,Lat Krabang,Bangkok,10520,Thailand,13.7229973,100.7745356,+66 2 327 4444,http://www.suvarnabhumisuite.com/,"Relaxed quarters in sleek property with dining, an outdoor pool & a spa, plus gardens.",0
Mariya Boutique Residence At Suvarnabhumi Airport,Hotel,"5, 1627/2 Chalong Krung 1 Alley, Lat Krabang, Bangkok 10520",Lat Krabang,Lat Krabang,Bangkok,10520,Thailand,13.722013,100.7716169,+66 2 326 7854,http://www.mariyahotel.com/,Streamlined rooms in a relaxed airport hotel offering 24-hour room service & free Wi-Fi.,0
Ploykhumthong Boutique Resort,"Hotel, Resort hotel",1194/5 Soi Latkrabang 40/2 Latkrabang Road Latkrabang Bangkok 10520,Latkrabang,Latkrabang,Bangkok,10520,Thailand,13.7167152,100.7641792,+66 2 326 9682,,"Relaxed rooms & suites in an unassuming hotel with a restaurant, a pool & a free airport shuttle.",0
The Cottage Suvarnabhumi,Hotel,"888/8 Lat Krabang Rd, Lat Krabang, Bangkok 10520",Lat Krabang,Lat Krabang,Bangkok,10520,Thailand,13.721074,100.7241615,+66 2 727 5858,http://www.thecottagebangkokairport.com/,"Unfussy airport hotel offering relaxed rooms with balconies, plus casual dining & an outdoor pool.",0
Yamyen Hostel,Hostel,"201 Lat Krabang Soi 36, Yaek 7, Lat Krabang, Bangkok 10520",Lat Krabang,Lat Krabang,Bangkok,10520,Thailand,13.7194761,100.7540213,+66 2 327 0638,http://yamyenhostel.lnwshop.com/,,0
Orchid Resort,Resort hotel,"62 ซอยลาดกระบัง 48 On Nut Rd, Lat Krabang, Bangkok 10520",Lat Krabang,Lat Krabang,Bangkok,10520,Thailand,13.7195451,100.7776511,+66 2 739 1020,,"Traditional Thai-style hotel with wood-paneled rooms & an outdoor pool, plus spa & massage services.",0
At Residence Suvarnabhumi,"Hotel, Serviced accommodation","458/4-8 Soi Lat Krabang 24/1, Lat Krabang, Bangkok 10520",Lat Krabang,Lat Krabang,Bangkok,10520,Thailand,13.7213091,100.7331762,+66 2 737 1505,http://www.atresidence.com/,"Casual airport hotel offering a restaurant, an outdoor pool & a gym, plus free parking & Wi-Fi.",0
Airport one station hometel,Hotel,"1 Rom Klao 27, Lat Krabang, Bangkok 10520",Lat Krabang,Lat Krabang,Bangkok,10520,Thailand,13.7259907,100.7471609,+66 86 602 0823,https://www.booking.com/hotel/th/airport-one-station.th.html,,0
Sinsuvarn Airport Suite Hotel,Hotel,"73, 13 Lat Krabang Rd, Lat Krabang, Bangkok 10520",Lat Krabang,Lat Krabang,Bangkok,10520,Thailand,13.7206252,100.7372818,+66 2 181 2418,http://www.sinsuvarnairportsuite.com/,"Unassuming airport hotel with a restaurant, an outdoor pool & a bar, plus a free airport shuttle.",0
panavara resort,"Hotel, Motel, Serviced apartment, Holiday apartment","25 Sukhontha Sawat 14 Alley, Lat Phrao, Bangkok 10230",Lat Phrao,Lat Phrao,Bangkok,10230,Thailand,13.8233728,100.6187563,+66 93 595 2525,https://panavararesort.com/,"Relaxed rooms in a contemporary hotel offering a cafe & an indoor garden, plus free parking & Wi-Fi.",0
48Metro,Hotel,"8 Lat Phrao Wang Hin Soi 48, Khwaeng Lat Phrao, Khet Lat Phrao, Krung Thep Maha Nakhon 10230",Lat Phrao,Lat Phrao,Bangkok,10230,Thailand,13.8186492,100.5929412,+66 86 755 1999,https://www.48metro.com/,Simply furnished quarters in an informal hotel featuring a fitness center & complimentary parking.,0
T3 Residence,Apartment building,"เลขที่ 8 อาคารทีทรี เรสซิเดนซ์ Nak Niwat 20 Alley, Lat Phrao, Bangkok 10230",Lat Phrao,Lat Phrao,Bangkok,10230,Thailand,13.807781,100.6090737,+66 87 820 8333,http://www.facebook.com/t3residence,,0
Greenpoint Residence,Hotel,"59 19 ซอย Lat Phrao, Bangkok 10230",Lat Phrao,Lat Phrao,Bangkok,10230,Thailand,13.8077826,100.6161314,+66 2 515 0069,http://www.greenpointresidence.com/,Polished rooms in a contemporary hotel featuring an airy restaurant/bar & an indoor pool.,0
Skydome Resotel,"Hotel, Hostel","ตอม่อ ที่ 74 114 Prasert-Manukitch Rd, Chorakhe Bua, Lat Phrao, Bangkok 10230",Chorakhe Bua,Lat Phrao,Bangkok,10230,Thailand,13.8390797,100.5996817,+66 2 362 8888,http://www.skydome-resotel.com/,"Laid-back quarters, some with whirlpool tubs, in a relaxed hotel featuring a rooftop bar & terrace.",0
Oun Hotel Bangkok อุ่น โฮเทล,"Hotel, Restaurant","364 ชื่อ ยโยธินพัฒนา 3 แยก 2-4 คลองจั่น Bang Kapi District, Bangkok 10240",คลองจั่น,Bang Kapi District,Bangkok,10240,Thailand,13.8144978,100.6240065,+66 2 515 1080,,,0
DB Plus 2,Serviced apartment,"บ้านเลขที่ 14 ซอยนาคนิวาส 24 ถนนนาคนิวาส ลาดพร้าว Lat Phrao, 10230",ลาดพร้าว,Lat Phrao,Bangkok,10230,Thailand,13.808886,100.610866,+66 2 530 5555,http://dbplusservice.com/,,0
Bansabai Hostel,"Hostel, Hotel","2.8 soi Nak Nivas, 53 ซอย ลาดพร้าว 71 Lat Phrao, Bangkok 10230",Lat Phrao,Lat Phrao,Bangkok,10230,Thailand,13.8165315,100.6092823,+66 2 932 9200,http://www.bansabaihostel.com/,"Simple rooms, some featuring balconies, in a casual hotel with free parking & a rooftop pool.",0
The Bangkok Cha Cha Suite,"Hotel, Serviced apartment","1/620 ซ.โชคชัย 4 ซอย 27, ถ.ลาดพร้าว, ข.ลาดพร้าว กรุงเทพมหานคร, 10310 ลาดพร้าว Bangkok 10230",ลาดพร้าว,ลาดพร้าว,Bangkok,10230,Thailand,13.8064099,100.5954183,+66 2 933 3663,,"Airy apartments, some with panoramic views, in a straightforward hotel offering free Wi-Fi & a cafe.",0
Murraya Residence,Apartment building,"9 Soi 4 (Nakniwas 37) Nakniwas Road, Bangkok 10230",Lat Phrao,Lat Phrao,Bangkok,10230,Thailand,13.8111668,100.6036336,+66 2 538 1400,http://www.murraya71.com/,,0
Grand Park Resort,Inn,"44 Pradit Manutham Rd, Tha Raeng, Bang Khen, Bangkok 10230",Tha Raeng,Bang Khen,Bangkok,10230,Thailand,13.843917,100.6359245,+66 99 351 6868,https://www.facebook.com/grandparkresort/,,0
BB house mini suite hotel,Hotel,"174 Lat Phrao 81 Alley, Khlong Chaokhunsing, Wang Thonglang, Bangkok 10310",Khlong Chaokhunsing,Wang Thonglang,Bangkok,10310,Thailand,13.7943112,100.6131452,+66 2 101 5688,http://www.bestbedhouse.com/site?name=BBHOUSE-MINI-SUITE,"Down-to-earth property featuring colorful rooms with free Wi-Fi & sitting areas, plus a cafe.",0
The President Hotel at Chokchai 4,Hotel,"519 Chok Chai 4 Soi 60, Khwaeng Lat Phrao, Lat Phrao, Bangkok 10230",Lat Phrao,Lat Phrao,Bangkok,10230,Thailand,13.8175661,100.5961291,+66 82 449 9792,http://thepresidenthotelatchokchai4-bke.zoombookdirect.com/?utm_source=googlemybusiness&utm_medium=organic&utm_campaign=google_my_business,,0
Barefeet Naturist Resort,"Resort hotel, Massage spa, Nudist club","85 ซอย ประเสริฐมนูกิจ 29 แยก 7 Lat Phrao, Bangkok 10230",Lat Phrao,Lat Phrao,Bangkok,10230,Thailand,13.8417488,100.6163118,+66 96 889 1112,http://www.barefeetnaturistresort.com/,,0
Vaccinated Staff - OYO 318 Pak D Resort,Hotel,"21 Soi Ram Intra 34, Khwaeng Lat Phrao, Khet Lat Phrao, Bangkok 10230",Lat Phrao,Lat Phrao,Bangkok,10230,Thailand,13.8396257,100.6331032,+66 2 026 1271,https://www.oyorooms.com/h/81689/?utm_source=GMB_TH&utm_medium=Organic&utm_campaign=TH_BGK055&latitude=13.8396257&longitude=100.6331032&locale=en,Low-key rooms & suites in a laid-back budget hotel featuring Wi-Fi & a simple restaurant.,0
The valen resort,Hotel,"204 ซอย ประเสริฐมนูกิจ 29 แยก 4 Chorakhe Bua, Lat Phrao, Bangkok 10230",Chorakhe Bua,Lat Phrao,Bangkok,10230,Thailand,13.8447834,100.6198579,+66 63 745 1564,,,0
RedDoorz Green Kaset Nawamin,Lodging,"43 ซอย ลาดปลาเค้า 40 ถนนลาดปลาเค้า, 43 Soi Prasert-Manukitch 17, Chorakhe Bua, Lat Phrao, Bangkok 10230",Chorakhe Bua,Lat Phrao,Bangkok,10230,Thailand,13.8417333,100.6005364,+66 2 570 1188,https://www.reddoorz.com/th-th/hotel/thailand/bangkok/lat-phrao/lat-phrao/reddoorz-green/?,,0
MY LOFT Condo,"Hotel, Inn","54 Ratchadaphisek 36 Alley, Lane 11, Chan Kasem, Chatuchak, Bangkok 10900",Chan Kasem,Chatuchak,Bangkok,10900,Thailand,13.8207633,100.5847261,+66 96 465 9946,https://www.facebook.com/%E0%B8%AB%E0%B9%89%E0%B8%AD%E0%B8%87%E0%B8%9E%E0%B8%B1%E0%B8%81%E0%B8%A3%E0%B8%B2%E0%B8%A2%E0%B8%A7%E0%B8%B1%E0%B8%99%E0%B8%A3%E0%B8%B2%E0%B8%A2%E0%B9%80%E0%B8%94%E0%B8%B7%E0%B8%AD%E0%B8%99-MY-LOFT-2-480064199042973/,,0
Tara Garden,Hotel,"10510 Ramkhamhaeng 164 Yaek 2, Min Buri, Bangkok 10510",Min Buri,Min Buri,Bangkok,10510,Thailand,13.7949788,100.7087755,+66 2 917 6960,http://www.taragardenthai.com/,"Straightforward hotel offering an international restaurant, a coffee shop & free breakfast.",0
KOS Hotel Suvarnabhumi Airport,Hotel,"82 Thanon Rom Klao, Khwaeng Min Buri, Min Buri, Bangkok 10510",Min Buri,Min Buri,Bangkok,10510,Thailand,13.8036621,100.7411001,+66 61 387 1111,http://www.koshotelgroup.com/,,0
The Resort,Resort hotel,"35, 15 Rom Klao, Sansab, Min Buri, Bangkok 10510",Sansab,Min Buri,Bangkok,10510,Thailand,13.7780241,100.7535934,+66 64 978 9298,https://www.facebook.com/theresortromklao15,,0
Capital O OYO 275 Kailub,Hotel,"225/109-110 CN House, Kumklao Soi 9, Seansab Min Buri, Bangkok 10510",Saen Saep,Min Buri,Bangkok,10510,Thailand,13.7861369,100.7802185,+66 81 665 6270,,,0
Pong Pai House,Resort hotel,"14/9 ซอยบึงขวาง 3, Bung Khwang Rd, Saen Saep, Min Buri, Bangkok 10510",Saen Saep,Min Buri,Bangkok,10510,Thailand,13.7860963,100.7602552,+66 99 461 9951,http://pongpai-resort.com/,,0
OYO 644 Pong Pai House,Hotel,"14/9 Soi, Bueng Khwang 3, Bangkok 10510",Saen Saep,Min Buri,Bangkok,10510,Thailand,13.786377,100.760229,+66 2 026 1271,https://www.oyorooms.com/96642/,,0
Pongsakorn Boutique Resort,"Business center, Hostel","81, 7-8 Luang Phaeng 2 Alley, Thap Yao, Lat Krabang, Bangkok 10520",Thap Yao,Lat Krabang,Bangkok,10520,Thailand,13.7187413,100.7892147,+66 2 077 4537,http://www.pongsakornboutiqueresort.com/,"Low-key rooms in a straightforward hotel with dining, a terrace, & a garden, plus free breakfast.",0
Canalis Suvarnabhumi Airport Hotel,Hotel,"1599, 1 Lat Krabang Rd, Khwaeng Lat Krabang, Lat Krabang, Bangkok 10520",Lat Krabang,Lat Krabang,Bangkok,10520,Thailand,13.722824,100.7749404,+66 96 941 6656,http://www.canalissuvarnabhumi.com/,"Refined property offering a restaurant, a bar & event space, plus a gym & an outdoor pool.",0
Golden Nest Hotel Suvarnabhumi,Hotel,"1585 3-4 Lat Krabang Rd, ลาดกระบัง Lat Krabang, Bangkok 10520",ลาดกระบัง,Lat Krabang,Bangkok,10520,Thailand,13.7221783,100.7692812,+66 82 717 5555,https://www.facebook.com/profile.php?id=100084362483703,,0
Avion Hotel,Hotel,"1646/99 Lat Krabang Rd, Lat Krabang, Bangkok 10520",Lat Krabang,Lat Krabang,Bangkok,10520,Thailand,13.7203846,100.7742901,+66 2 327 3737,,Simple quarters with kitchenettes in a relaxed apartment hotel with a pool & breakfast.,0
My Home พุทธมณฑลสาย4 (อพาร์ทเม้นท์&โรงแรม),"Hotel, Serviced apartment","222 หมู่5 Krathum Lom 30 Alley, Krathum Lom, Sam Phran District, Nakhon Pathom 73220",Krathum Lom,Sam Phran District,Nakhon Pathom,73220,Thailand,13.7225386,100.3330689,+66 95 792 4529,https://myhomeapartmentsai4.business.site/?utm_source=gmb&utm_medium=referral,,0
Studio 41: salaya-Sai4,Hotel,"Krathum Lom, Sam Phran District, Nakhon Pathom 73220",Krathum Lom,Sam Phran District,Nakhon Pathom,73220,Thailand,13.7296125,100.3306719,+66 87 519 5524,https://www.facebook.com/Studio-41-Salaya-Sai4-2281589055190084/,,0
Jolly Suites and Spa @Petkasem,Hotel,"113, 2 หมู่ที่ 11 Petchkasem Rd, Tambon Om Noi, Krathum Baen District, Samut Sakhon 74130",Om Noi,Krathum Baen District,Samut Sakhon,74130,Thailand,13.7036793,100.3246622,+66 2 408 7701,http://www.jollysuites.com/,Simply furnished rooms & suites in a casual property offering a Chinese restaurant & a spa.,0
แกรนด์ แสนสุข อ้อมน้อย - ห้องพัก 24 ชั่วโมง,Hotel,"148 89 Tambon Om Noi, Krathum Baen District, Samut Sakhon 74130",Om Noi,Krathum Baen District,Samut Sakhon,74130,Thailand,13.6996689,100.3151151,+66 88 168 4499,https://www.facebook.com/profile.php?id=100084816302673&sk=about,,0
SEEN บูติค อะพาร์ทเม้นท์,"Extended stay hotel, Serviced apartment","99 Phet Kasem 114, Nong Khang Phlu, Nong Khaem, Bangkok 10160",Nong Khang Phlu,Nong Khaem,Bangkok,10160,Thailand,13.7131537,100.3340979,+66 81 000 4422,https://www.renthub.in.th/seen-boutique-apartment-%E0%B8%8B%E0%B8%B5%E0%B8%99-%E0%B8%9A%E0%B8%B9%E0%B8%95%E0%B8%B4%E0%B8%81-%E0%B8%AD%E0%B8%9E%E0%B8%B2%E0%B8%A3%E0%B9%8C%E0%B9%80%E0%B8%A1%E0%B9%89%E0%B8%99%E0%B8%97%E0%B9%8C,,0
10 Park Resort,"Resort hotel, Cottage, Hotel, Shelter","บ้านเลขที่ 9 ซอยเพชรเกษม 108 Yaek 10, Nong Khang Phlu, Nong Khaem, Bangkok 10160",Nong Khang Phlu,Nong Khaem,Bangkok,10160,Thailand,13.7141177,100.3515119,+66 62 396 4888,,,0
Lavender Place,Serviced apartment,"115 8-14 ถ. เลียบคลองภาษีเจริญฝั่งใต้ Nong Khaem, Bangkok 10160",Nong Khaem,Nong Khaem,Bangkok,10160,Thailand,13.6812287,100.3570085,+66 89 981 5156,https://lavender-place.business.site/,,0
เวนีเซีย รีสอร์ท เพชรเกษมซอย 59 Venezia Hotel Thailand,"Hotel, Hostel, Inn, Motel, Resort hotel, Holiday apartment","14/1 Phet Kasem 57 Alley, Lak Song, Bang Khae, Bangkok 10160",Lak Song,Bang Khae,Bangkok,10160,Thailand,13.7073891,100.3922916,+66 89 811 4916,http://www.veneziahotel-thailand.com/,Warmly decorated rooms in a charming European-inspired hotel featuring Wi-Fi & a lounge.,0
66 Apartment,Lodging,"66 66 Phet Kasem 51 Alley, Khwaeng Bang Khae Nuea, Khet Bang Khae, Bangkok 10160",Bang Khae Nuea,Bang Khae,Bangkok,10160,Thailand,13.7044839,100.3995971,+66 91 440 5678,https://www.renthub.in.th/%E0%B8%99%E0%B8%A3%E0%B8%B4%E0%B8%99%E0%B8%97%E0%B8%A3%E0%B8%AD%E0%B8%9E%E0%B8%B2%E0%B8%A3%E0%B9%8C%E0%B8%97%E0%B9%80%E0%B8%A1%E0%B9%89%E0%B8%99%E0%B8%97%E0%B9%8C%E0%B8%99,,0
58 Ville Resort,"Resort hotel, Hostel, Inn",15/24 ซอย ร่มไทร ถนน กาญจนาภิเษก แขวงหลักสอง หลักสอง บางแค Bangkok 10160,หลักสอง,บางแค,Bangkok,10160,Thailand,13.6755552,100.3995964,+66 83 587 1155,https://www.facebook.com/58ville/,,0
Novotel Bangkok on Siam Square,Hotel,"392 44 Siam Square Soi 6, Pathum Wan, Khet Pathum Wan, Bangkok 10330",Pathum Wan,Pathum Wan,Bangkok,10330,Thailand,13.7442821,100.5347507,+66 2 209 8888,https://all.accor.com/lien_externe.svlt?goto=fiche_hotel&code_hotel=1031&merchantid=seo-maps-TH-1031&sourceid=aw-cen&utm_medium=seo+maps&utm_source=google+Maps&utm_campaign=seo+maps&y_source=1_MTUzNTkwODMtNzE1LWxvY2F0aW9uLndlYnNpdGU%3D,"Warm quarters, some with balconies, in a relaxed hotel offering 3 restaurants & an outdoor pool.",0
Lub d Bangkok Siam,Hotel,"925, 9 Rama I Rd, Wang Mai, Pathum Wan, Bangkok 10330",Wang Mai,Pathum Wan,Bangkok,10330,Thailand,13.7468712,100.52869,+66 2 612 4999,https://lubd.com/destination/bangkok-siam/,"Eclectic hostel offering a cafe/bar, a terrace & a TV lounge, plus complimentary Wi-Fi.",0
S3 Siam Bangkok Hotel โรงแรม เอสทรี สยาม กรุงเทพ,Hotel,"2, 6 Kasem San 3 Alley, Wang Mai, Pathum Wan, Bangkok 10330",Wang Mai,Pathum Wan,Bangkok,10330,Thailand,13.7488932,100.5273818,+66 99 252 2991,http://www.myroomth.com/s3siam/index-en.html,,0
Renaissance Bangkok Ratchaprasong Hotel,"Hotel, Meeting planning service, Wedding venue","518, 8 Phloen Chit Rd, Khwaeng Lumphini, Khet Pathum Wan, Bangkok 10330",Lumphini,Pathum Wan,Bangkok,10330,Thailand,13.7428194,100.5417684,+66 2 125 5000,https://www.marriott.com/en-us/hotels/bkkbr-renaissance-bangkok-ratchaprasong-hotel/overview/?scid=f2ae0541-1279-4f24-b197-a979c79310b0,"Plush rooms & suites in a posh hotel with indoor & outdoor pools, plus a spa, bars & dining.",0
Centara Grand & Bangkok Convention Centre at centralwOrld,"Hotel, Convention center, Restaurant, Spa","999, 99 Rama I Rd, Pathum Wan, Bangkok 10330",Pathum Wan,Pathum Wan,Bangkok,10330,Thailand,13.7477183,100.5387477,+66 2 100 1234,http://www.centarahotelsresorts.com/centaragrand/cgcw/,"Upscale high-rise lodging with an outdoor pool, a tennis court & a spa, plus rooftop dining & bars.",0
ibis Bangkok Siam,Hotel,"927 Rama I Rd, Wang Mai, Pathum Wan, Bangkok 10330",Wang Mai,Pathum Wan,Bangkok,10330,Thailand,13.7468212,100.5289608,+66 2 659 2888,https://all.accor.com/lien_externe.svlt?goto=fiche_hotel&code_hotel=8016&merchantid=seo-maps-TH-8016&sourceid=aw-cen&utm_medium=seo+maps&utm_source=google+Maps&utm_campaign=seo+maps&y_source=1_MTUzNjI5MzYtNzE1LWxvY2F0aW9uLndlYnNpdGU%3D,"Laid-back, minimalist rooms in a contemporary hotel offering a restaurant, a terrace & a 24/7 bar.",0
Arnoma Grand Bangkok,Hotel,"99 Ratchadamri Rd, Lumphini, Pathum Wan, Bangkok 10330",Lumphini,Pathum Wan,Bangkok,10330,Thailand,13.7465184,100.5408834,+66 2 655 5555,http://www.arnoma.com/,"Casual quarters in a high-rise hotel with a seafood restaurant, a pool, a wine bar & a gym.",0
HOUSE OF PAPA BANGKOK SIAM,Hotel,"188/44, Soi Chula 16, Wang Mai, Pathum Wan, Bangkok 10330",Wang Mai,Pathum Wan,Bangkok,10330,Thailand,13.7419343,100.5246099,+66 92 428 8264,https://hotels.cloudbeds.com/reservation/9zztFS?fbclid=IwAR3w3FHnp2jizLHPrBcYB-MGf3TI0GnG2ypHqySLmvPSblXhuEko0AY9qaA#checkin=2022-12-08&checkout=2022-12-09,"Informal hotel offering colorful rooms, some with balconies, plus a garden & complimentary Wi-Fi.",0
Asia Hotel Bangkok,Hotel,"296 Phaya Thai Rd, Khwaeng Thanon Phetchaburi, Khet Ratchathewi, Bangkok 10400",Thanon Phetchaburi,Ratchathewi,Bangkok,10400,Thailand,13.7513459,100.5310997,+66 2 217 0808,http://www.asiahotel.co.th/asia_bangkok/,"Streamlined rooms & suites in a relaxed hotel offering an outdoor pool, a lobby bar & 3 restaurants.",0
"Holiday Inn Bangkok, an IHG Hotel","Hotel, Conference center, Wedding venue","971 Phloen Chit Rd, Lumphini, Pathum Wan, Bangkok 10330",Lumphini,Pathum Wan,Bangkok,10330,Thailand,13.7447696,100.5419394,+66 2 656 1555,https://www.ihg.com/holidayinn/hotels/us/en/bangkok/bkkpc/hoteldetail?cm_mmc=GoogleMaps-_-HI-_-TH-_-BKKPC,"Chic quarters in a contemporary hotel with a 1920s-style bar/eatery, a restaurant & a pool.",0
Golden House,"Hotel, Bed & breakfast, Guest house, Hostel, Serviced accommodation, Youth hostel","1025/5-9 Ploenchit Road, Lumpinee, Pathum Wan, Bangkok 10330",Lumpinee,Pathum Wan,Bangkok,10330,Thailand,13.7447032,100.5429778,+66 96 894 2616,http://www.goldenhousebangkok.com/,Colorful rooms in an informal budget hotel offering a lobby lounge & complimentary Wi-Fi.,0
Reno Hotel Bangkok,Hotel,"40 Kasem San 1 Alley, Wang Mai, Pathum Wan, Bangkok 10330",Wang Mai,Pathum Wan,Bangkok,10330,Thailand,13.7473048,100.5295333,+66 2 215 0026,http://www.renohotel.co.th/,"Modest rooms & suites in an understated hotel offering a cafe, a restaurant & an outdoor pool.",0
Hansar Luxury Boutique Hotel,"Hotel, Bar, Bistro, Boutique, Breakfast restaurant, Cafe, Event venue, Spa, Thai restaurant","3, 250 Soi Mahadlek, Lumphini, Pathum Wan, Bangkok 10330",Lumphini,Pathum Wan,Bangkok,10330,Thailand,13.7402135,100.5409369,+66 2 209 1234,http://www.hansarhotels.com/hotels/bangkok,"Swanky, all-suite hotel offering breakfast, 2 restaurants, a pool & a bar with live music.",0
Pathumwan Princess Hotel,"Hotel, Buffet restaurant, Italian restaurant, Korean restaurant, Night market, Shopping mall, Swimming pool, Tourist attraction, Wedding venue","444 Phaya Thai Rd, Wang Mai, Pathum Wan, Bangkok 10330",Wang Mai,Pathum Wan,Bangkok,10330,Thailand,13.7433574,100.5296122,+66 2 216 3700,https://www.pprincess.com/?utm_source=google&utm_medium=business_listing,"Polished lodging with Italian & Korean dining, plus a spa & a rooftop cocktail bar with a terrace.",0
Bangkok City Inn,Hotel,"43/5 Rajdamri Road Khwaeng Lumphini, Pathum Wan, Bangkok 10330",Lumphini,Pathum Wan,Bangkok,10330,Thailand,13.7486888,100.5416279,+66 2 253 5373,http://www.bangkokcityinnhotel.com/,Unfussy rooms in a straightforward budget hotel with international dining & free parking.,0
The Quarter Phloen Chit by UHG,Hotel,"33/2 Soi Ruam Rudi 2, Lumphini, Pathum Wan, Bangkok 10330",Lumphini,Pathum Wan,Bangkok,10330,Thailand,13.7387755,100.5492977,+66 2 038 3999,http://quarterploenchit.com/,"Refined hotel offering an outdoor pool & an exercise room, plus a restaurant & a lounge.",0
Centre Point Hotel Chidlom,Hotel,"60 Lang Suan 1 Alley, Lumphini, Pathum Wan, Bangkok 10330",Lumphini,Pathum Wan,Bangkok,10330,Thailand,13.7389878,100.5433068,+66 2 657 2400,http://www.centrepoint.com/,Airy quarters with kitchenettes in a polished hotel offering an indoor saltwater pool & dining.,0
Beerapan Hotel,Hotel,"158 Soi Wutthakat 14, Talat Phlu, Thon Buri, Bangkok 10600",Talat Phlu,Thon Buri,Bangkok,10600,Thailand,13.7157569,100.4701353,+66 2 466 1619,https://beerapanhotel.thailandhotels.site/,,0
Bang Luang House,Hotel,"1378 ริมคลองบางกอกใหญ่ Wat Tha Phra, Bangkok Yai, Bangkok 10600",Wat Tha Phra,Bangkok Yai,Bangkok,10600,Thailand,13.7318154,100.4632809,+66 89 668 0808,http://www.bangluanghouse.com/,,0
Int Place,"Hotel, Apartment building, Extended stay hotel, Furnished apartment building","555, 55 Somdet Phra Chao Tak Sin Rd, Samre, Thon Buri, Bangkok 10600",Samre,Thon Buri,Bangkok,10600,Thailand,13.7053474,100.4860793,+66 89 980 6677,,"Vibrant quarters, some with balconies, offering free Wi-Fi & fridges, in a funky budget hotel.",0
515 Victory,Hotel,"5, 15 Phaya Thai Rd, Khwaeng Thanon Phaya Thai, Ratchathewi, Bangkok 10400",Thanon Phaya Thai,Ratchathewi,Bangkok,10400,Thailand,13.7627575,100.5373237,+66 2 245 1515,http://www.515victory.com/,,0
Livable Hotel Bangkok,Hotel,"89/9Thanon, Rang Nam Alley, Thanon Phaya Thai, Ratchathewi, Bangkok 10400",Thanon Phaya Thai,Ratchathewi,Bangkok,10400,Thailand,13.7621757,100.5416377,+66 2 245 2299,,,0
Capital Mansion Executive Living Suites,Apartment building,"1371 Phahonyothin Road, Samsen Nai, Phaya Thai, Bangkok 10400",Samsen Nai,Phaya Thai,Bangkok,10400,Thailand,13.7883648,100.5474576,+66 2 278 7979,https://www.website4hotels.com/go/capital-mansion-bangkok,,0
โรงแรมมิโด-MIDO HOTEL,Hotel,"222 Pradiphat Rd, Phayathai Phaya Thai, Bangkok 10400",Phayathai,Phaya Thai,Bangkok,10400,Thailand,13.790365,100.5426665,+66 86 334 3273,http://www.midohotelbkk.com/,"Understated rooms & suites in a relaxed property offering a cafe, a restaurant & an outdoor pool.",0
Bangkok Voyage Boutique,"Hotel, Bed & breakfast, Serviced accommodation","10, 27 Soi Phahonyothin 5, Samsen Nai, Phaya Thai, Bangkok 10400",Samsen Nai,Phaya Thai,Bangkok,10400,Thailand,13.7778559,100.5417545,+66 2 270 5570,https://www.bangkok-voyage.com/,,0
